Restaurant_ID,Restaurants_Name,Address,City,State,Postal_Code,Latitude,Longitude,Stars_Rating,Review_Count,Restaurants_Delivery,Outdoor_Seating,Accepts_CreditCards,Price_Range,Alcohol,Good_For_Kids,Reservations,Restaurants_TakeOut,WiFi,Good_For_Groups,Wheelchair_Accessible,Happy_Hour,Noise_Level,Dietary_Restrictions
MTSW4McQd7CbVtyjqoe9mw,St Honore Pastries,935 Race St,Philadelphia,PA,19107,39.9555052,-75.1555641,4.0,80,0,0,0,1,1,0,0,1,1,0,0,0,1,0
0bPLkL0QhhPO5kt1_EXmNQ,Zio's Italian Market,2575 E Bay Dr,Largo,FL,33771,27.9161159,-82.7604608,4.5,100,1,0,1,1,1,1,0,1,0,0,1,0,4,0
MUTTqe8uqyMdBl186RmNeA,Tuna Bar,205 Race St,Philadelphia,PA,19106,39.953949,-75.1432262,4.0,245,1,1,1,2,1,0,1,1,1,1,1,1,4,0
ROeacJQwBeh05Rqg7F6TCg,BAP,1224 South St,Philadelphia,PA,19147,39.943223,-75.162568,4.5,205,1,1,1,1,1,1,0,1,0,0,0,0,1,0
9OG5YkX1g2GReZM0AskizA,Romano's Macaroni Grill,5505 S Virginia St,Reno,NV,89502,39.4761165,-119.7893392,2.5,339,1,1,1,2,1,1,1,1,1,1,0,1,4,0
tMkwHmWFUEXrC9ZduonpTg,The Green Pheasant,215 1st Ave S,Nashville,TN,37201,36.1598858,-86.7731974,4.0,161,1,0,1,1,1,0,1,1,1,1,1,1,4,0
QdN72BWoyFypdGJhhI5r7g,Bar One,767 S 9th St,Philadelphia,PA,19147,39.9398245705,-75.1574465632,4.0,65,1,0,1,2,1,0,0,1,1,1,0,1,4,0
Mjboz24M9NlBeiOJKLEd_Q,DeSandro on Main,4105 Main St,Philadelphia,PA,19127,40.0224662,-75.218314,3.0,41,1,1,1,1,1,1,0,1,1,1,0,0,2,0
kV_Q1oqis8Qli8dUoGpTyQ,Ardmore Pizza,10 Rittenhouse Pl,Ardmore,PA,19003,40.0067071,-75.289671,3.5,109,1,0,1,1,1,1,0,1,0,1,0,0,4,0
aPNXGTDkf-4bjhyMBQxqpQ,Craft Hall,901 N Delaware Ave,Philadelphia,PA,19123,39.9625821,-75.1356571,3.5,65,1,1,1,2,0,1,0,1,0,0,0,1,1,0
ljxNT9p0y7YMPx0fcNBGig,Tony's Restaurant & 3rd Street Cafe,312 Piasa St,Alton,IL,62002,38.896563,-90.1862032987,3.0,94,0,1,1,2,1,1,1,1,1,1,1,1,4,0
lk9IwjZXqUMqqOhM774DtQ,Caviar & Bananas,2031 Broadway,Nashville,TN,37203,36.1483712,-86.7988947,3.5,159,1,1,1,2,1,1,0,1,1,1,1,1,4,0
JgpnXv_0XhV3SfbfB50nxw,Joe's Pizza,2038 N Dale Mabry Hwy,Tampa,FL,33607,27.9605142,-82.506127,4.0,35,1,0,1,1,1,1,0,1,0,1,0,0,4,0
Si6LXSR9gvAbmgO5DzV2cw,Lafitte's Landing Seafood House,1700 Lapalco Blvd,Harvey,LA,70058,29.8754822266,-90.04938,2.5,38,0,0,1,2,1,1,1,1,1,1,0,0,1,0
seKihQKpGGnCeLuELRQPSQ,Twin Peaks,6880 E 82nd St,Indianapolis,IN,46250,39.9062952,-86.0474634,3.5,257,0,1,1,2,1,1,0,1,1,1,0,1,2,0
qfWJmJ0g96eM_fWma3ja0g,Doc Magrogan's Oyster House - West Chester,117 E Gay St,West Chester,PA,19380,39.9615417,-75.6036042,3.0,114,0,1,1,2,1,1,1,1,0,1,0,1,4,0
pJfh3Ct8iL58NZa8ta-a5w,Top Shelf Sports Lounge,3173 Cypress Ridge Blvd,Wesley Chapel,FL,33544,28.1962523878,-82.3806153496,4.5,95,1,0,1,2,1,0,1,1,1,1,1,1,4,0
ppFCk9aQkM338Rgwpl2F5A,Wawa,3604 Chestnut St,Philadelphia,PA,19104,39.954573,-75.1948936,3.0,56,1,0,1,1,1,1,0,1,1,1,0,0,4,0
IDtLPgUrqorrpqSLdfMhZQ,Helena Avenue Bakery,"131 Anacapa St, Ste C",Santa Barbara,CA,93101,34.4144445,-119.6906718,4.0,389,1,1,1,2,1,1,0,1,0,1,1,0,4,0
YNjyv0gfOr2g8lbmUpTnKg,Copper Vine,1001 Poydras St,New Orleans,LA,70112,29.9506467229,-90.0744274301,4.5,350,1,1,1,2,1,0,1,1,1,1,1,1,4,0
oaboaRBUgGjbo2kfUIKDLQ,Mike's Ice Cream,129 2nd Ave N,Nashville,TN,37201,36.1626492,-86.7759733,4.5,593,1,1,1,2,1,1,0,1,1,1,0,0,4,0
1MeIwdbTnZOBFCKOrgaxuw,Ricardo's Italian Cafe,1931 Park Ave,Saint Louis,MO,63104,38.6172724,-90.2127841,3.5,80,0,0,1,2,1,1,1,1,1,1,0,1,4,0
TLZ3-eDPLhUzfsWO4ad6Ug,Mahony's Po-Boys & Seafood,901 Iberville St,New Orleans,LA,70112,29.9554151,-90.0700619,4.0,382,0,0,1,2,1,1,0,1,1,1,1,1,4,0
vje0KIiE7vtpx7JzmBx5LQ,The Pearl,163 107th Ave,Treasure Island,FL,33706,27.7694046,-82.767317,4.0,129,1,1,1,3,1,0,1,1,1,1,1,0,4,0
VrGxoSNZfSiT-G4OqRRGIw,Sunset 44 Bistro,118 W Adams Ave,Saint Louis,MO,63122,38.5832229,-90.4071872,4.0,73,1,1,1,2,1,1,1,1,1,1,1,1,1,0
3BJxm-HnvzdwD1zjmSbmyQ,Golden Chopstick Chinese Restaurant,1800 Spring Garden St,Philadelphia,PA,19130,39.963077709,-75.1680274529,3.0,137,1,0,1,1,1,1,1,1,1,1,1,0,4,0
9C2rpb56aQvW0ViZHK9sPw,Home Plate Sports Pub,4880 E 22nd St,Tucson,AZ,85711,32.206315,-110.887843,3.5,56,0,1,1,1,1,1,0,0,0,1,0,1,4,0
SZU9c8V2GuREDN5KgyHFJw,Santa Barbara Shellfish Company,230 Stearns Wharf,Santa Barbara,CA,93101,34.4087147,-119.6850187,4.0,2404,1,1,1,2,1,1,0,1,0,0,0,0,4,0
WYYdQDjx-DsCanlP0DpImQ,J Sushi,243 S 10th St,Philadelphia,PA,19107,39.9470334,-75.1574339,4.5,72,1,0,1,2,1,1,1,1,1,1,1,0,4,0
X_E7U2lVNEwbH_gpOBmAHQ,Cerveza Jack's,135 2nd Ave N,Nashville,TN,37201,36.162799,-86.776016,4.0,182,0,1,1,2,1,0,0,1,1,1,0,1,3,0
G4lRmwDHdvhZAhmtlsYYBw,Wendy's,741 Thompson Ln,Nashville,TN,37204,36.112075744,-86.7674462724,1.5,37,1,0,1,1,1,1,0,1,0,1,0,0,1,0
BxhkoR6cscJwwex8gx31OA,Bar-B-Cutie,1787 Gallatin Pike N,Madison,TN,37115,36.296536,-86.700179,3.5,40,1,0,1,2,1,1,0,1,0,1,0,0,2,0
Ms5xG8i4p80KSMcF3tt4ug,Sal DeForte's Ristorante,1400 Parkway Ave,Ewing,NJ,08628,40.2668877,-74.8056572,4.0,52,1,1,1,2,1,1,1,1,1,1,0,0,4,0
ORL4JE6tz3rJxVqkdKfegA,Gaylord Opryland Resort & Convention Center,2800 Opryland Dr,Nashville,TN,37214,36.2115923083,-86.6943191727,3.0,1639,1,1,1,3,1,1,1,1,1,1,1,1,4,0
yM8LlTInbQH4FwWC97lz6w,McDonald's,1919 S Jefferson,St. Louis,MO,63104,38.6124951839,-90.2219420671,1.5,100,1,1,1,1,1,1,0,1,1,1,0,0,1,0
CtMEJxpVMlNzFpB4PtFjfA,Aussie Grill,25340 Sierra Center Blvd,Lutz,FL,33559,28.192191035,-82.396367,4.0,75,1,1,1,1,1,0,0,1,0,0,1,0,1,0
pmuuoDqNZp7518AUd-YmPA,Bagelicious - King Of Prussia,216 W Beidler Rd,King of Prussia,PA,19406,40.1124813,-75.3799748,3.5,60,0,0,1,1,0,0,0,1,0,0,0,0,1,0
IYlUaKC9nICjiWdk-ShPlg,Bub's Cafe,220 2nd St SW,Carmel,IN,46032,39.976614,-86.130124,4.0,175,0,1,1,2,1,1,0,1,1,1,0,0,4,0
Dtuf4vD0znzwJW9vk3iTNw,Tomo Japanese Steakhouse and Sushi Bar,"7411 N Keystone Ave, Ste A",Indianapolis,IN,46240,39.8887246,-86.1212129,4.0,246,1,0,1,2,1,1,1,1,1,1,0,0,4,0
Ucl9Vo5lwrUmYbV8Dv8X5g,O'Briens Irish Pub,15435 N Dale Mabry Hwy,Tampa,FL,33618,28.09236,-82.500588,4.0,108,0,1,1,2,1,1,0,1,1,1,0,0,3,0
Y6heWJJ9AmEL58fZwgi9YQ,Rosati's Pizza,2944 W Ina Rd,Tucson,AZ,85741,32.3387235226,-111.0303098651,4.0,58,1,1,1,2,1,1,0,1,1,0,1,1,1,0
bTve2mwLk5Zc01vRKqc2KQ,Red Hook Coffee & Tea,765 S 4th St,Philadelphia,PA,19147,39.9385518,-75.1496356,4.5,183,0,1,0,1,1,1,0,1,1,0,0,0,1,0
xbRbvXSAVZBEwaUUn3mzbg,Lee Roy Selmon's,14457 N Dale Mabry Hwy,Tampa,FL,33618,28.0787347875,-82.5063104158,3.5,42,1,1,1,2,1,1,1,1,1,1,0,1,4,0
uDQgmudYDKiB6n4vwbEeDg,Chrysalis,9040 Carothers Pkwy,Franklin,TN,37067,35.9565328581,-86.8027199385,4.5,112,1,0,1,2,1,0,1,1,1,0,1,0,1,0
v5kwdvmg-J8g-ll0nkc3Sw,The Libertine Liquor Bar,38 E Washington St,Indianapolis,IN,46204,39.7672488945,-86.1567753553,4.0,208,0,1,1,2,1,0,1,1,1,0,0,0,4,0
bqmX882_6AxVA_uHEQ70sQ,Shanghai Station,4002 Spruce St,Philadelphia,PA,19104,39.9516153765,-75.2033457223,4.0,46,0,0,1,2,1,1,1,1,1,1,0,1,2,0
Edg22x3CZkIv0GUib2oEFA,Mellow Mushroom,8227 Oak St,New Orleans,LA,70118,29.9486236188,-90.1312502816,3.5,149,1,1,1,2,1,1,1,1,1,1,0,1,4,0
VVvUBlc_WIEb8obKGq39dA,Four Green Fields,"4100 George J Bean Pkwy, Airside E, Tampa International Airport",Tampa,FL,33607,27.9803985924,-82.5377866183,4.5,39,0,0,1,2,1,1,0,1,1,0,0,0,1,0
py5aKmlTB2NarfsfcOpHOQ,Cafe Con Leche,4100 George J Bean Pkwy,Tampa,FL,33607,27.9767745,-82.5374233,2.5,55,1,0,1,1,0,1,0,1,1,0,0,0,1,0
wZhGuW7vQpfhxeEvLHkTrA,Express Cafe,400 E Fairview Ave,Meridian,ID,83642,43.6196488,-116.3871392,4.5,119,0,0,1,1,1,1,0,1,0,1,1,0,4,0
_T0cPZE2ZJOTTlYYKMP64Q,Brown Sugar Bakery & Cafe,219 S 52nd St,Philadelphia,PA,19139,39.9563959,-75.2253784,4.5,66,1,0,1,1,1,1,0,1,1,0,0,0,4,0
dJfkfBbJz7wi0RgW-ph_Eg,Sake House,5106 E Fowler Ave,Tampa,FL,33617,28.055212,-82.399374,3.0,140,1,0,1,2,1,1,1,1,0,1,0,1,4,0
VbItL6RDULtnw4YvB6EhVg,Jon's Bar & Grille,300 South St,Philadelphia,PA,19147,39.9412993,-75.1477446,3.0,178,0,0,0,2,1,1,0,1,0,1,0,0,4,0
W57cR9a7XP6RX56MSWHJJA,Las Margaritas,514 S Rampart St,New Orleans,LA,70163,29.95029,-90.074887,3.5,58,0,1,1,2,1,1,1,1,1,1,0,1,4,0
x7_p5O3ChQa7shdHCcLHZQ,Olivier's Creole Restaurant,204 Decatur St,New Orleans,LA,70130,29.9510658,-90.0715323,3.5,172,0,0,1,2,1,0,1,1,0,1,0,0,1,0
JF7iyI3wA_AKi_iXOKi0Qw,Parlor Suburban Square,30 Parking Plz,Ardmore,PA,19003,40.008645,-75.288802,3.5,61,1,1,1,2,1,1,1,1,1,1,1,1,4,0
Pr_Mlt9FqdcW7WCFGJmozA,The Cider Factory,420 S B St,Virginia City,NV,89440,39.305224,-119.652596,4.5,104,1,1,1,2,1,1,1,1,1,1,1,0,1,0
7GDqSUaXrpC8Ql7nDBxWA,B2 Bluefin,401 E City Ave,Bala Cynwyd,PA,19004,40.0079839104,-75.2126064939,4.0,92,0,0,1,4,1,0,1,1,1,1,1,1,4,0
tuyCmcmm5Q-bc-9zV76xKA,Pho Friendly,729 Brunswick Ave,Trenton,NJ,08638,40.23547,-74.7532115132,4.5,93,1,1,1,2,1,1,0,1,1,1,0,0,1,0
zVlhs7BVaouutt-rles-YA,Williams Sub Shop,3801 Tyrone Blvd N,Saint Petersburg,FL,33709,27.806517,-82.749065,4.5,99,0,0,0,1,1,1,0,1,0,1,0,0,4,0
1E9o1SNo7UTf1XHTFPv1_Q,Franklin Juice Co,"230 Franklin Rd, Ste 11W",Franklin,TN,37064,35.9326054453,-86.860662065,4.5,66,1,1,1,2,1,1,0,1,1,1,1,0,4,0
0CEUpFtaKhxbmrbSdP9MUQ,Acadia,824 S 8th St,Philadelphia,PA,19147,39.9389483,-75.1564078,4.0,79,1,1,1,2,1,1,1,1,1,1,0,1,1,0
f82dhKNiUXsDVPMLqKYiIQ,Sher-e-Punjab,853 East Grant Rd,Tucson,AZ,85719,32.2509598946,-110.9591583204,4.0,446,1,0,1,2,1,1,1,1,1,1,0,1,4,0
FF45pKN_lzqG8Bqk-_HQvw,Go! Gyro! Go!,,Saint Louis,MO,63116,38.5844866,-90.266699,4.5,49,0,0,1,1,1,1,0,1,0,1,1,0,4,0
TEP-73fGvgSUmtQFaOTA_g,The Steak Out,3640 W Tangerine Rd,Marana,AZ,85658,32.424551,-111.042885,2.5,30,0,1,1,2,1,1,1,1,0,1,0,1,3,0
b7YJrFZWZdI2C5-9nZvVdw,Saltwater Grill,710 S Carrollton Ave,New Orleans,LA,70118,29.944454,-90.133537,2.5,34,0,1,1,2,1,1,1,1,0,1,0,0,4,0
xJyp6RLqNRv3tSu6njPKxQ,World of Beer,"102 Main St, Ste 100",Exton,PA,19341,40.0236651,-75.6291878,3.0,208,1,1,1,2,1,0,0,1,1,1,1,1,4,0
1P_mGUY1PyPq7_ZabrzpBw,Carmine's Steakhouse,20 S 4th St,Saint Louis,MO,63102,38.6243584,-90.1886849,4.0,261,1,1,1,3,1,0,1,1,1,1,0,0,4,0
XwoXi0M66RU6Gouq-DSDHw,G Peppers Grill & Tavern,8745 Gunn Hwy,Odessa,FL,33556,28.0921362,-82.5785736,4.0,82,0,0,1,1,1,1,0,1,1,1,0,1,4,0
OfW-VK04qr7b7bPm5QbyLg,Taqueria Feliz,303 Horsham Rd,Horsham,PA,19044,40.1807271,-75.1346993,3.0,77,0,0,1,2,1,1,1,1,1,1,1,1,4,0
0DbIUh_Xuj6H5B_SF0RLCQ,Iguana's Mexican Restaurant,"680 E 56th St, Ste A",Brownsburg,IN,46112,39.8518617214,-86.3847577572,4.0,74,1,1,1,2,0,1,0,1,0,1,0,1,4,0
bSJczuohHVko33UT82hnfA,Blaze Pizza,611 O'keefe Ave,New Orleans,LA,70113,29.948395,-90.075281,4.0,302,1,1,1,1,1,1,0,1,1,1,1,0,2,0
PCM-vL-vRLJ4HB2OE8Nnbg,Baxter's Saloon & Grill,20 Liberty Blvd,Malvern,PA,19355,40.0536347,-75.526719,2.5,31,0,1,1,2,1,0,1,1,1,1,0,0,2,0
VeqkfRUzZAKlQer3npXPdQ,New India's Kitchen,14222 Manchester Rd,Ballwin,MO,63011,38.5920571,-90.5035651,4.0,130,0,1,1,2,1,1,1,1,0,1,0,0,1,0
dChRGpit9fM_kZK5pafNyA,The Love,130 S 18th St,Philadelphia,PA,19103,39.9506555,-75.1708991,4.0,618,1,1,1,2,1,0,1,1,1,1,0,1,4,0
KdkMXzeoqpfNsZd-_axoTQ,emPIEnada,3683 Kings Row,Reno,NV,89503,39.5428346,-119.8569115,4.5,41,1,1,1,1,1,0,0,1,0,0,1,0,1,0
od6skmfXz9twktEAuJHEmw,Ryan Christopher,245 Woodbine Ave,Narberth,PA,19072,40.0099504,-75.2591858,4.0,120,1,1,1,2,1,1,1,1,1,1,0,0,4,0
j9Kaj_6tSeXmVMYCgZithg,Noble Crust,28330 Paseo Dr,Wesley Chapel,FL,33543,28.188219,-82.347274,4.5,496,1,1,1,2,1,1,1,1,1,1,1,1,4,0
4xhGQGdGqU60BIznBjqnuA,California Tacos and Taproom,956 Embarcadero Del Norte,Isla Vista,CA,93117,34.4115552,-119.8550772,4.0,49,1,1,1,1,1,0,0,1,1,0,1,0,1,0
juVJO2kMrHwCYXwQQmv1Tg,Sidekicks Pizza,1105 Shelby St,Indianapolis,IN,46203,39.7520076,-86.1395724,4.0,45,1,1,1,2,1,1,1,1,1,1,1,0,1,0
QWqKTWQ2OiDgo3dzNkpung,Jong Ka Jib,6600 N 5th St,Philadelphia,PA,19126,40.0520643,-75.1273939,4.5,351,1,0,1,2,1,1,1,1,0,1,0,0,4,0
Wt1W6qwCvna1KzIuJRJbwA,Tokyo Mandarin,370 Delsea Dr N,Glassboro,NJ,08028,39.7119376,-75.1109667,4.0,88,0,0,1,2,1,1,1,1,0,1,0,0,1,0
kwQzVF5GP8DzdyBavvhIaQ,Fisherman's Cove Seafood,3201 Williams Blvd,Kenner,LA,70065,30.0144336,-90.2402643,4.0,91,0,0,1,2,1,1,0,1,0,1,0,0,4,0
ifjluUv4VASwmFqEp8cWlQ,Marty's Pizza,2733 De La Vina St,Santa Barbara,CA,93105,34.4362361,-119.7261474,4.0,64,1,0,1,2,1,1,0,1,0,1,0,0,2,0
7mpYTDb24SywNMRn3yeakQ,The Twisted Tail,509 S 2nd St,Philadelphia,PA,19147,39.9418766,-75.1451988,4.0,604,0,1,1,2,1,0,1,1,1,1,1,1,4,0
iEC0VzHM2hQ13wM7c0QwgQ,Metro Diner,2390 E Lincoln Hwy,Langhorne,PA,19047,40.180187,-74.87527,3.5,56,1,0,1,2,1,0,0,1,0,1,0,0,1,0
D7z_V6E8cxXghSRcHAmUPg,La Bella China Restaurant,5680 S 12th Ave,Tucson,AZ,85706,32.149473,-110.9781864,4.0,92,1,0,1,1,1,1,0,1,1,1,0,0,1,0
JPm93BlP-UHYPqFgK66JUw,Local Links,533 Station Ave,Haddon Heights,NJ,08035,39.8826936,-75.0583844,4.5,70,0,1,1,1,1,1,0,1,1,0,0,0,4,0
VeFfrEZ4iWaecrQg6Eq4cg,Cal Taco,"7320 Hollister Ave, Ste 1",Goleta,CA,93117,34.4305419,-119.882367,4.0,189,1,1,1,1,1,1,1,1,0,1,1,1,4,0
5iuo1kvv0XZMS0bUOoLz2Q,Bistro St. Tropez,"2400 Market St, Ste 427",Philadelphia,PA,19103,39.9535919923,-75.1794226902,3.5,163,1,0,1,2,1,0,1,1,0,1,0,0,1,0
rR30b1XWbxZFFgLyGbfNAw,BODHI : Craft Bar + Thai Bistro,922 Massachusetts Ave,Indianapolis,IN,46202,39.7802203,-86.1418027,4.5,132,0,0,1,2,1,0,0,1,1,1,1,0,4,0
4QFqi8w3rlZTcc5LXKyPJw,Chris' Pizza Village Pleasant View,"244 Village Sq Pleasent, Ste 100",View,TN,37146,36.387932573,-87.0147362534,4.0,31,0,1,1,2,1,1,0,1,0,1,1,0,1,0
bchZXVE4feVx4Q5rhIRCGg,NY Bagel Cafe & Deli,"4514 B City Line Ave, Ste 220",Philadelphia,PA,19131,40.0027825,-75.2222705,3.0,52,1,0,1,1,1,1,1,1,1,1,1,0,4,0
9qxMhGWjGsuPUoQB3Y74Wg,McDonald's,1119 N Tucker,St. Louis,MO,63101,38.6369079537,-90.1954829934,1.5,62,1,0,1,1,0,1,0,1,1,1,0,0,2,0
pJB63RaQpkTIKBhfTsLQQg,Biryani Hut,"14350 Mundy Dr, Ste  700",Noblesville,IN,46060,39.9970877,-86.0023117,4.0,83,1,1,1,2,0,1,0,1,0,1,0,0,1,0
ngvE1G9IckUO-ljZBFo23w,Mumbai Bistro,930 Locust St,Philadelphia,PA,19107,39.947207,-75.1572515,4.0,217,1,0,1,1,1,1,0,1,0,0,0,0,1,0
46_2e1hnQ4csLrYnhn6bkw,Whetstone Tavern,700 S 5th St,Philadelphia,PA,19147,39.9408715785,-75.1510468125,4.0,166,0,1,1,2,1,0,1,1,1,1,0,1,4,0
TGfPJHImEq6AQL9a1laxlg,Chick-fil-A,9711 Roosevelt Blvd,Philadelphia,PA,19114,40.08178,-75.0267907,4.0,80,1,0,1,1,1,1,0,1,1,1,0,0,2,0
VCkSUsdL5P0p16DAPxVROA,NY Bagel & Deli Shop,1120 Buttonwood St,Philadelphia,PA,19123,39.960811,-75.1573883,4.0,31,1,0,1,1,0,0,0,1,1,0,0,0,4,0
dIpTuL2T1L98GQGU17IeSw,The Bricks,1327 E 7th Ave,Tampa,FL,33605,27.9600238,-82.4444005,4.0,548,1,1,1,2,1,1,0,1,1,1,1,1,4,0
XRkzSBTroG7kIdI7Z8ic6g,Piccadilly,"2222 Clearview Pkwy, Ste 107",Metairie,LA,70001,29.994939,-90.18365,3.0,51,1,0,1,1,1,1,0,1,1,1,0,0,4,0
FW1PXpUq-yOs-5O_gqz3AQ,Big Mike's BBQ,6901 Sheldon Rd,Tampa,FL,33615,28.0114997,-82.5828401,4.5,32,0,1,1,1,1,1,0,1,1,1,0,0,1,0
SlLfWzeYOrVBxCd-0QILZQ,The Boiling House,"1990 Marlton Pike E, Ste 10",Cherry Hill,NJ,08003,39.8996609,-74.9532997,4.0,238,1,1,1,2,1,1,1,1,1,1,1,0,4,0
pNu5bd9aL3jcJClfdQ86MQ,Momo's Ouzaria Taverna,630 N And S Rd,St Louis,MO,63130,38.6603769097,-90.3371429443,3.5,243,0,1,1,2,1,1,1,1,1,1,0,1,4,0
bdfZdB2MTXlT6-RBjSIpQg,Pho Bistro,903 Embarcadero Del Norte,Isla Vista,CA,93117,34.4129345,-119.8555307,3.0,184,1,1,1,1,1,1,0,1,0,1,0,0,4,0
SwWfW3vBn5QkDE7T3urGAg,Persis Biryani Indian Grill,"630 S Mount Juliet Rd, Ste 310",Mount Juliet,TN,37122,36.162142,-86.516006,4.5,246,1,1,1,2,1,1,1,1,1,1,1,0,4,0
W4rgF_1eKzFZiGUOsgbGMA,Amber Indian Restaurant,12510 N Meridian St,Carmel,IN,46032,39.9710819,-86.1601728,4.0,243,1,0,1,2,1,1,1,1,1,1,1,0,1,0
yN6jZyG1G1FG_HCZQlJZ1g,City Barbeque,9367 Ambleside Dr,Fishers,IN,46038,39.979376,-86.001692,4.0,188,1,1,1,2,1,1,0,1,1,1,0,0,4,0
jGewGnIYcf9LFBcR8lMC5g,Picasso Restaurant & Bar,36 W State St,Media,PA,19063,39.9179115,-75.390854,3.0,34,0,1,1,2,1,0,1,1,0,1,0,1,4,0
lVTNjVoTMOkD-eT--u0oA,El Rancho Nuevo,1644 Country Club Plaza Dr,Saint Charles,MO,63303,38.7687445,-90.5219795,3.5,66,1,0,1,2,1,1,1,1,1,1,0,0,3,0
0sr1EyOc6Td1C-962QW88w,La Cucina Italian Eatery,1642 Butler Pike,Conshohocken,PA,19428,40.088398,-75.2926963,4.0,44,1,1,1,2,1,1,0,1,1,1,1,0,4,0
SFKjUQ1gmfwm7cJhMCFmkA,ZigZag Scallop,4417 Calienta St,Hernando Beach,FL,34607,28.497700000000002,-82.650015,4.0,214,1,1,1,2,1,1,1,1,1,1,1,1,2,0
xwSWtJcQkzTF6HNm_IMgcg,Rusty's Pizza Parlor,270 Storke Rd,Goleta,CA,93117,34.4290427,-119.8693616,2.5,94,1,0,1,2,1,1,1,1,0,1,1,0,4,0
IbndcMURguByburM72o3SA,State Street Kitchen,24 S State St,Newtown,PA,18940,40.2285432,-74.9370146,4.5,124,0,0,1,1,1,1,0,1,0,0,0,0,4,0
diwwt5QBU3-Thig9SVlsOA,Brew Brothers,345 N Virginia St,Reno,NV,89501,39.5295616355,-119.8145651258,3.5,592,1,0,1,2,1,0,0,1,1,1,0,0,2,0
0l_njS4wGMadAk1b4nZRUA,Panera Bread,150 Allendale Rd,King of Prussia,PA,19406,40.089985,-75.382315,2.5,58,1,0,1,2,1,1,0,1,1,1,0,0,4,0
lB6jIOb1UBATmdfot4KJew,Soco's Gyros,5530 S Lindbergh Blvd,Saint Louis,MO,63123,38.5245347,-90.355678,4.0,126,1,0,1,1,1,1,0,1,0,1,0,0,4,0
cm0bhBDPM3bjBefmEXa3BQ,Nudy's Cafe - Chadds Ford,240 Painters' Crossing,Chadds Ford,PA,19317,39.8808598,-75.5482765,3.5,63,1,1,1,2,1,1,0,1,0,1,1,0,4,0
3c9TiufCFT2yXXj3R08Vwg,Snellgroves Restaurant,109 S Collins St,Plant City,FL,33563,28.0148425,-82.1231756,3.5,64,1,0,1,1,1,1,0,1,1,1,0,0,4,0
TJe1ZGe-X0-GjOQd00kKxA,Brixx Craft House,"7700 W State St, Ste 100",Boise,ID,83714,43.671633,-116.283591,4.0,115,1,1,1,2,1,1,1,1,0,1,1,1,1,0
HCbJPXWXvwN-C7XfmVy3gA,Granite City Food & Brewery,"49 W Maryland St, Ste B03A",Indianapolis,IN,46204,39.7664200969,-86.1592453161,3.5,258,1,1,1,2,1,1,1,1,1,1,0,1,4,0
uKEabBQrn0gLzvTppOrKIA,Casita Taqueria,2701 4th St,Saint Petersburg,FL,33704,27.7969762597,-82.6381678127,4.5,207,1,1,1,1,1,1,0,1,1,1,0,1,2,0
8JEOmVGQffkr6xtn4vvplQ,Pita Kebob,3028 E College Ave,Ruskin,FL,33570,27.713401,-82.394372,4.0,142,1,1,1,1,1,1,0,1,1,1,0,0,1,0
rF0xI_3jjlsEKp3N0Z0BuQ,Trattoria Totaro,639 Spring Mill Ave,Conshohocken,PA,19428,40.0750524,-75.2945235,4.0,135,1,1,1,2,1,1,1,1,0,1,0,0,2,0
qma1sGQv7ArUtzuUTQElRg,Katie's Pizza & Pasta Osteria,14171 Clayton Rd,Town and Country,MO,63017,38.62468,-90.5150663,4.0,313,0,1,1,2,1,1,1,1,1,1,1,1,4,0
zjQDk4tZyhEroyqtkgvx0g,The Cobblestone Eatery and Drinkery,115 W St Louis St,Lebanon,IL,62254,38.6041071,-89.8085329,3.5,52,0,1,1,2,1,1,0,1,1,1,1,1,4,0
adb1hOYICrJ1Ix8M0sRpbw,Kuzina By Sofia,404 Rt 70 W,Cherry Hill,NJ,08034,39.9124556,-75.0022657,3.0,125,1,1,1,2,1,1,1,1,1,1,0,0,4,0
kfGz2E7Y5FLXJyiKbQYfZg,The Irish Times,629 S 2nd St,Philadelphia,PA,19147,39.9403745,-75.1456109,3.5,44,1,1,1,2,1,1,1,1,1,1,0,0,4,0
H3JjbID9Zhukpqr9uupHAA,Jackson's Bar & Bistro - Nashville,1800 21st Ave S,Nashville,TN,37212,36.1366299,-86.8004366,3.0,402,0,1,1,2,1,0,0,1,1,1,0,0,4,0
O5zuQH_YowDC-rsK8ZEXCA,Tin Drum Asia Cafe,"3867Tampa Rd, Ste 305",Tampa,FL,34677,28.0451503082,-82.6812278379,3.0,62,0,0,1,1,1,1,0,1,1,1,0,0,4,0
jsQQu9rVerR3OGxIa0hRQQ,Kelly's Taproom,1107 Lancaster Ave,Bryn Mawr,PA,19010,40.024588,-75.3242387,3.0,63,0,0,1,2,1,0,0,1,1,1,1,1,3,0
Hp3Ony7yW60VPuWHQFIIHA,Frady's One Stop Food Store,3231 Dauphine St,New Orleans,LA,70117,29.963974,-90.0426042,4.5,73,0,1,0,1,1,1,0,1,1,0,0,0,4,0
UX3eq0WsVva-cqlVrzyzFg,Cantina Los Tres Hombres,926 Victorian Ave,Sparks,NV,89431,39.5351105,-119.7548567,3.0,284,1,1,1,2,1,1,1,1,0,1,1,1,4,0
sophKEDc2rBDe-cuOaJDkA,365 Caffe Italiano,"28210 Paseo Dr, Ste 100, Shops At Wiregrass",Wesley Chapel,FL,33543,28.187946572,-82.3500558385,4.5,127,1,1,1,1,1,1,1,1,1,1,1,0,2,0
18eWJFJbXyR9j_5xfcRLYA,Siam Elephant,509 Linden Ave,Carpinteria,CA,93013,34.3965102,-119.5216815,4.5,460,1,1,1,2,1,1,1,1,0,1,1,0,4,0
PdMXmOWDRHICAx6SLgu1dQ,24,2401 Walnut St,Philadelphia,PA,19103,39.9515211,-75.1798731,3.5,111,1,1,1,2,1,1,1,1,1,1,1,1,3,0
dD2p903p8lU0IgXT3OFluA,Edgehill Cafe,1201 Villa Pl,Nashville,TN,37212,36.1429685,-86.7923549,3.5,245,0,1,1,1,1,1,0,1,1,1,0,1,4,0
dBCNUSbz5-8nQNrxWo5deg,Blue Sage Vegetarian Grille,727 2nd St Pike,Southampton,PA,18966,40.1751076427,-75.0432257715,4.5,572,1,0,1,2,1,0,1,1,0,1,1,0,4,0
6mCsrUp9Vl4iXMbOxWtVjA,Dosa Hut Indian Grill,4047 Nolensville Pike,Nashville,TN,37211,36.0810108,-86.7280648,4.0,99,1,0,1,1,1,1,0,1,1,1,1,0,4,0
71U7MxQEhwitJOm4CQpRwQ,KELP Sushi Joint,"3401 W Bay To Bay Blvd, Ste D",Tampa,FL,33629,27.920067,-82.4989209,4.0,325,1,1,1,2,1,1,1,1,1,1,1,1,4,0
Mt1FB8hM4XTi3Tk4i0q5gQ,Nicola's Pizza,8 N Franklin St,Lambertville,NJ,08530,40.3664177,-74.9416785,4.0,54,1,1,1,1,1,1,0,1,1,1,0,0,4,0
2DsplH_vy4GCcEnVpn0AbA,Cafe Olivia,222 E Market St,Indianapolis,IN,46204,39.768973,-86.153309,4.5,34,0,1,1,1,1,1,0,1,1,0,0,0,3,0
sWCCxY1-9B1FGlSVeQvnHg,CD Roma Restaurant,1462 66th St N,St Petersburg,FL,33710,27.7854888011,-82.7302946082,4.0,125,1,1,1,2,1,1,0,1,1,1,1,1,2,0
wcpL6sD6jKsBO0tbdK2KEA,McDonald's,8907 E 116th St,Fishers,IN,46038,39.9575816,-86.0106627,2.0,34,1,0,1,1,1,1,0,1,1,1,0,0,1,0
k6NkyANDoAMSNpa9_VD8IQ,Rosa Mezcal,1814 Magazine St,New Orleans,LA,70130,29.9316559894,-90.0736488057,4.0,76,0,0,1,2,1,1,0,1,1,1,0,1,2,0
ZH-D4qbLggBSvwpF0zXrQQ,The Original Pancake House,5900 W Fariview Ave,Boise,ID,83704,43.6192456,-116.2546881,4.0,155,0,0,1,2,1,1,0,1,1,1,1,0,4,0
zIDuAuwyaLmNwv4k18mbwA,India Palace,4213 Lafayette Rd,Indianapolis,IN,46254,39.8317759,-86.2404209,3.5,167,1,0,1,2,1,1,1,1,0,1,0,0,1,0
yQhu3LbnB2gQgrquHZ_S6Q,Saladworks,2804 S Eagle Rd,Newtown,PA,18940,40.2340046,-74.9414872286,3.0,42,1,0,1,2,1,1,0,1,0,1,0,0,4,0
Gki1ureeRKqlIkQ-AELDVg,Brugada,204 Commerce St,Nashville,TN,37201,36.163323,-86.7765917,3.5,49,1,0,1,2,1,0,1,1,1,1,1,1,2,0
JomDoQafikclSVVCPkWjnA,Cedar Park Cafe,4914 Baltimore Ave,Philadelphia,PA,19143,39.94796,-75.22198,4.0,301,1,0,1,1,1,1,0,1,0,1,0,0,4,0
1ddqdY_piKp-abaZ-bGRSA,Crescent City Steak House,1001 N Broad St,New Orleans,LA,70119,29.9733253,-90.0810244,3.5,226,0,0,0,3,1,0,1,1,0,1,1,0,4,0
gl9APAes1BYYt_8UsDVsPg,Ted's Luncheonette,1201 Clearwater Largo Rd N,Largo,FL,33770,27.9278613,-82.7961982,4.0,37,0,0,1,1,1,1,0,1,1,1,0,0,1,0
gyUBYwpUO_u0nqZdre4l1g,Shanghai Express,Church Rd & Hainespo,Marlton,NJ,08053,39.916113059,-74.9215189617,4.0,74,1,0,1,1,1,1,0,1,1,1,0,0,1,0
wMyHVb54Ne9SNasa4kjOCg,Carnivore,5257 Shaw Ave,St. Louis,MO,63110,38.6184117,-90.2741825,4.5,281,1,1,1,2,1,1,1,1,1,1,1,1,4,0
4FaYG9qKDpDyr68bKmaIEw,Capitol Cellars,110 S 5th St,Boise,ID,83702,43.6135729,-116.1999038,4.0,176,0,1,1,2,1,0,1,1,1,1,0,1,1,0
rqaIe-61HKlWaGYmVwlw8Q,Petite 4,4 N Latah St,Boise,ID,83706,43.6046712,-116.22804,4.5,121,1,1,1,3,0,0,1,1,1,0,0,0,4,0
kq5Ghhh14r-eCxlVmlyd8w,The Coventry Deli,2000 Market St,Philadelphia,PA,19103,39.953291,-75.173645,4.0,65,1,1,1,1,1,1,0,1,0,1,0,0,4,0
pP4q0Mym-qt20nRqTKbzhQ,Morton's The Steakhouse,1411 Walnut St,Philadelphia,PA,19102,39.949603,-75.1649701595,3.5,149,0,0,1,4,1,0,1,0,0,1,0,1,1,0
Wc-c_hQK4vFCl9keeVTUZw,Felix's Restaurant & Oyster Bar,7400 Lakeshore Dr,New Orleans,LA,70124,30.023792,-90.1136223,3.5,255,1,1,1,2,1,1,0,1,1,1,1,1,1,0
c6xOzTbNqD-1g9PoxAh4DQ,The Wine Loft,503 12th Ave S,Nashville,TN,37203,36.1520443,-86.7846698,3.0,36,0,0,1,2,1,0,0,0,0,1,0,0,4,0
YhQAQhG1IkXJH7oLZMbM9w,Del Taco,252 Los Altos Pkwy,Sparks,NV,89431,39.5836527,-119.740935,1.5,60,1,1,1,2,1,1,0,1,1,1,0,0,2,0
NVpbPRDvfwjb85CJwWE0nQ,China Wok,545 Rockledge Ave,Huntingdon Valley,PA,19006,40.0903977316,-75.0926760348,4.0,55,1,0,1,2,1,1,1,1,0,1,0,0,1,0
LVteL0Rnh2E_yOFCLJUPhg,Double Decker Pizza - Media,415 E Baltimore Ave,Media,PA,19063,39.916169,-75.382347,4.0,88,1,0,1,1,1,1,0,1,1,1,1,0,2,0
HjLYCBxJti8V-hsP_yVZ3w,Taj Mahal Homestyle Indian & Pakistani Cuisine,"150 N 8th St, Ste 222",Boise,ID,83702,43.6161949628,-116.2027077,4.0,280,1,1,1,2,1,1,1,1,1,1,1,0,1,0
vVm2qH6n4tWzN_qv6PBIVw,The Humming Bird Jerk house,"17631 Bruce B Downs Blvd, Unit F",Tampa,FL,33647,28.130283,-82.364992,3.5,32,1,0,0,1,0,0,0,1,0,0,0,0,1,0
skN2XhKXlcjf53uIwzAedw,Burger Up - Franklin,401 Cool Springs Blvd,Franklin,TN,37067,35.9459704793,-86.8279486659,3.5,329,1,1,1,2,1,1,0,1,1,1,1,0,4,0
vLT1KtrA9bWvjFOg-0xVIg,Pieology Pizzeria,"7000 Hollister Ave, Ste F",Goleta,CA,93117,34.4304533,-119.8723449,3.5,131,1,1,1,1,1,1,0,1,0,1,0,0,1,0
y1HgVnt4K5owmYXC5yXLGg,Flambo Caribbean Restaurant,820 N Broad St,Philadelphia,PA,19130,39.9686973,-75.1606146,4.5,138,1,0,1,2,1,1,1,1,1,1,0,0,4,0
jBCgQ6nZDsMCWU7eaSxOpw,Whaley's Blazin BBQ,18213 N US Highway 41,Lutz,FL,33549,28.137927,-82.4626332,4.5,58,0,0,1,1,1,1,0,1,0,1,0,0,1,0
hfN3l0gJ-XszD1XFGNvA6A,Akira,720 Haddon Ave,Collingswood,NJ,08108,39.91576,-75.068382,3.0,40,1,0,1,2,1,1,1,1,0,1,0,0,4,0
vo12FJ4dAdP8Jr4ctFYRkg,Painturo's,12910 Lebanon Rd,Mount Juliet,TN,37122,36.2244538,-86.5418712,4.0,46,0,1,1,2,1,1,0,1,0,1,0,0,4,0
8P7YOM9ThhTvLqXfSWRcRA,Noodles & Company,10925 Olive Blvd,Creve Coeur,MO,63141,38.6735532,-90.4204985,3.5,65,1,1,1,1,1,1,0,1,1,1,0,0,4,0
I2CxrvM0BGH1svfxqGGD2g,M.L.Rose Craft Beer & Burgers - Melrose,"2535 8th Ave S, Ste 107",Nashville,TN,37204,36.1226231735,-86.7761365195,3.5,472,0,1,1,2,1,0,0,1,1,1,1,1,4,0
RrqRin8BYGrTlJbCDwtLzA,Wawa,3744 Spruce St,Philadelphia,PA,19104,39.9510885597,-75.1989988336,3.5,50,1,0,1,1,1,1,0,1,1,0,0,0,4,0
IgNDlyLERBwFGphgcC5VDQ,Cosi,1128 Walnut St,Philadelphia,PA,19107,39.9487514826,-75.1604487143,2.5,63,0,1,1,1,1,1,0,1,1,1,0,0,4,0
W4ZEKkva9HpAdZG88juwyQ,Mr. B's Bistro,201 Royal St,New Orleans,LA,70130,29.9543868,-90.0683629,4.0,2064,1,0,1,3,1,0,1,1,1,1,1,1,4,0
3swM60bulnut1d4AZti80Q,Rockabilly Grill,3700 N Oracle Rd,Tucson,AZ,85705,32.2739894,-110.9775344,3.5,37,0,1,1,1,1,0,0,1,1,1,1,1,3,0
4fUok5d5vgdQEb1Bzzg0rA,Olive Garden Italian Restaurant,1315 W Esplanade Ave,Kenner,LA,70065,30.0200051249,-90.2493493809,3.5,115,1,0,1,2,1,1,0,1,1,1,1,1,4,0
bdth7r1brx9yRU7sYwF9jQ,Nippon Tei,14025 Manchester Rd,Ballwin,MO,63011,38.596068,-90.493565,4.0,254,0,0,1,2,1,0,1,1,0,1,0,0,4,0
5cz1XbgalpQ89gsNQwneVQ,Portofino's Italian Kitchen,6742 Memorial Hwy,Tampa,FL,33615,27.9955961525,-82.5828616138,4.0,59,1,0,1,2,1,1,1,1,1,1,1,0,1,0
rBE5TT_ndOOczNBrbRnJwA,Dio Modern Mediteranean,519 N Franklin St,Tampa,FL,33602,27.9491200666,-82.458398826,4.0,325,0,1,1,2,1,1,0,1,1,1,1,0,4,0
oRZzKWdyMQld6N_y4UWkAg,Terra Sur Cafe,"5330 Ehrlich Rd, Ste 103",Tampa,FL,33624,28.0819277157,-82.5391477434,4.0,316,1,1,1,2,1,1,0,1,0,1,0,0,4,0
biGIDbCGsAZJ-Y4zyV_b_A,Taza Mediterranean Grill,1076 East Brandon Blvd,Brandon,FL,33511,27.940439,-82.266787,4.5,65,1,0,1,1,1,1,0,1,1,1,0,0,1,0
SSZDGl2J-CEyIzuIbEiYNQ,Caleco's Bar & Grill,101 N Broadway,Saint Louis,MO,63102,38.62644,-90.1897829,3.0,532,0,0,1,2,1,1,1,1,1,1,1,1,4,0
dUctvEfHQccW_uxtRup2QQ,Tsunami Japanese Steakhouse,2176 Tyrone Blvd N,Saint Petersburg,FL,33710,27.7899621,-82.7262212,3.0,212,0,0,1,2,1,1,1,1,1,1,1,1,4,0
qWZimITbVwNSGJZsuM47-Q,Pho Orchid Uptown,2135 St Charles Ave,New Orleans,LA,70130,29.9345207214,-90.0806121826,3.5,81,0,1,1,2,1,1,1,1,0,1,1,1,4,0
L_sXNadtVHjxMw7Yhvkj9Q,Naoki Ramen,915 Race St,Philadelphia,PA,19107,39.955454,-75.1549,4.0,92,0,0,1,2,1,1,1,1,1,1,0,0,2,0
RJPRi1pwocHNZr9ISz_P-A,National Underground,105 Broadway,Nashville,TN,37201,36.1617952,-86.7744663,2.5,126,0,1,1,2,1,0,0,1,1,1,0,1,3,0
CjkxTRergWcYWb4SVW3gxw,Smokin' Out,3333 US Hwy 19,Holiday,FL,34691,28.20766,-82.740475,4.5,88,0,0,1,1,1,1,0,1,1,1,0,0,2,0
K5ffo0hkwhG33BDNQrJF6A,Slate Bleu Restaurant,100 S Main St,Doylestown,PA,18901,40.3072739,-75.1299259,4.0,105,0,1,1,3,1,0,1,1,1,1,0,1,4,0
oQYZ3j2H758y07p4RpCWug,August Rhodes Bakery,3073 N Campbell Ave,Tucson,AZ,85719,32.2627192,-110.9446296,4.5,89,1,1,1,2,1,0,0,1,1,1,1,0,4,0
lgu_KwQLd8TX2ewsNIzsjA,K-Bop STL,6120 Delmar Blvd,St Louis,MO,63112,38.6549760334,-90.2968843281,4.5,69,1,1,1,1,1,1,0,1,1,1,1,0,4,0
HuDNHqKv9n1mWpe4BqCnwA,Minas Pizza,6151 Ridge Ave,Philadelphia,PA,19128,40.0352350987,-75.2167929785,3.0,54,1,0,1,1,1,1,0,1,0,1,0,0,2,0
H2nFgEFitRk7ltE8IRH0xA,Taco Bell,4647 West Kennedy Blvd,Tampa,FL,33609,27.944918,-82.523213,2.5,42,1,0,1,1,1,1,0,1,1,1,0,0,4,0
Y2NFeGtConx1qciSPKcRlA,Reginelli's Pizzeria - Closed,3244 Magazine St,New Orleans,LA,70115,29.9233127,-90.0875812,3.5,171,1,1,1,2,1,1,0,1,1,1,0,1,4,0
T9n_LqUUhC2b1ALhg57Y5Q,Texas Roadhouse,1545 Street Rd,Bensalem,PA,19020,40.09165,-74.93997,4.0,240,0,0,1,2,1,1,0,1,0,1,0,1,3,0
n1HOCV74TBVZdQdOUgp9xA,Moe's Southwest Grill,611 Berlin Cross Keys Rd,Sicklerville,NJ,08081,39.7357834,-75.0083576,2.0,50,0,0,1,1,1,1,0,1,1,1,0,0,4,0
NQSnr4RPUScss607oxOaqw,Chase's Hop Shop,7235 Rising Sun Ave,Philadelphia,PA,19111,40.0603863,-75.0845897,4.5,116,1,1,1,1,1,1,0,1,1,1,1,0,1,0
Ea2hPSFazxXITET4f6ZJhw,Beef 'O' Brady's,18421 N US Hwy 41,Lutz,FL,33549,28.140648,-82.461204,3.0,46,1,0,1,2,1,1,1,1,1,1,1,1,4,0
E3xBC7Bb6KRlZeqcY3bWtA,Build-a-Burger,3811 Green Hills Village Dr,Nashville,TN,37215,36.1084621,-86.8164366,2.5,38,0,0,1,2,1,1,1,1,1,1,0,0,4,0
7utsfp2dXJ09j8Gb9hAIvA,Suzy-Jo Donuts,49 E 4th St,Bridgeport,PA,19405,40.1053723,-75.3404208,4.5,89,0,0,1,1,0,0,0,1,0,0,0,0,1,0
joeRm-_7T0XTkMdKo2nbaA,Paola's Pizzeria,128 N Wayne Ave,Wayne,PA,19087,40.0451819,-75.388188,4.5,126,0,1,1,1,1,1,0,1,1,1,1,0,4,0
k0AO8X3VzWe_F4lkMb0eSg,The Cubby Hole,"37 E Main St, FL 1",Moorestown,NJ,08057,39.9647367,-74.9453088,4.5,202,0,1,1,2,1,1,0,1,1,0,0,0,4,0
_HcAoG6Jj_XTj4-XNEbo6Q,Fuzzy's Taco Shop,"5621 E Fowler Ave, Units 201-207",Tampa,FL,33617,28.0533288743,-82.3928146398,3.0,172,1,1,1,1,1,1,0,1,1,1,1,1,4,0
MuKoTR56s6elHEI2wUkgJA,Grace Meat + Three,4270 Manchester,St. Louis,MO,63110,38.6267906,-90.2567049,4.5,470,1,1,1,2,1,1,0,1,0,1,1,1,2,0
V6Om7YZhlRQRU7WfuxHq8Q,Beck's Cajun Cafe,51 N 12th St,Philadelphia,PA,19107,39.9533224742,-75.1590000821,4.0,485,1,0,1,1,1,1,0,1,1,0,0,0,4,0
COclRBaXBjYpomS4syUmvg,Monon Coffee Company,920 E Westfield Blvd,Indianapolis,IN,46220,39.870878,-86.1422438,4.0,170,0,1,1,1,0,0,0,1,1,0,1,0,4,0
qUHaTDZlzjPXSvXrLk66mw,Rai Rai Ramen,1200 S Church St,Mount Laurel Township,NJ,08054,39.9199498,-74.9283212,4.5,196,1,1,1,2,1,0,0,1,1,1,0,0,1,0
DOl21AqtT74dUZ3kvXNNcA,Golden Triangle,610 S 5th St,Philadelphia,PA,19147,39.9415201345,-75.1509702725,4.5,159,1,1,1,2,1,1,1,1,1,1,0,0,1,0
q40E5X_HdjeM_Kl1BE7Gtg,Orchid Thai Foods,17022 Palm Pointe Dr,Tampa,FL,33647,28.1184025,-82.3816714,4.5,62,0,0,1,2,1,1,1,1,1,0,1,0,4,0
I4TFiNX5gTsJBnEGH2Tl8Q,Benna's West,1444 S Broad St,Philadelphia,PA,19146,39.931855,-75.168473,3.5,47,0,1,0,1,1,1,0,1,1,0,0,0,4,0
FzelkV3vzxkRgBmVSIqALA,Edley’s,2392 S State Rt 157,Glen Carbon,IL,62034,38.7733254332,-89.9929298076,3.0,34,0,1,0,2,1,0,0,0,0,0,0,0,4,0
lj-E32x9_FA7GmUrBGBEWg,Brio Italian Grille,1601 S Lindbergh Blvd,St Louis,MO,63131,38.6324938,-90.4064437,3.5,366,1,1,1,2,1,0,1,1,1,1,0,1,4,0
QNxXsVPYcecUuhGRG-88OQ,Harvest Bowl Eatery & Market,6109 N Florida Ave,Tampa,FL,33604,28.002703,-82.4590917,4.0,101,1,0,1,2,1,0,0,1,1,1,1,0,1,0
RzGr37s8p2ujVuN9of7ksQ,Panaderia La Conchita,4239 Nolensville Pike,Nashville,TN,37211,36.0744978515,-86.7254739712,4.5,44,0,0,1,1,1,1,0,1,1,1,0,0,4,0
isbeaPln-E0DdffLRsuFhw,Francisco's On The River,1251 River Rd,Washington Crossing,PA,18977,40.3136566,-74.8957796,4.0,109,1,1,1,3,1,0,1,1,1,1,0,0,4,0
5wgoIQXyP3BEPZLiVi1W8A,The Howlin' Wolf,907 S Peters St,New Orleans,LA,70130,29.9426876,-90.065991,3.5,213,1,1,1,2,1,0,0,1,1,1,0,0,4,0
hTyJhpH7Bl5moMWQb4Sosg,Island Fin Poké,"6417 E County Line Rd, Ste 101",Tampa,FL,33647,28.169016,-82.356628,5.0,88,1,1,1,2,1,0,0,1,1,0,1,0,1,0
2quqM0ajKfTC_DV8sLAvxQ,Jon Smith Subs,"150 STen Mile Rd, Ste 140",Meridian,ID,83642,43.6033767164,-116.4330922049,3.5,39,1,0,1,2,1,0,0,1,0,0,0,0,1,0
IXv-g1iK3Hwsnxp0vT8OgA,Whataburger,1430 W River Rd,Tucson,AZ,85704,32.2979232056,-110.9969272166,2.5,71,1,0,1,1,1,1,0,1,1,1,0,0,2,0
PvT44WlqJLkUrCITo6AjRA,Breakfast Boutique Chestnut Hill,8630 Germantown Ave,Philadelphia,PA,19118,40.0771492176,-75.2087070076,3.0,151,1,0,1,2,1,1,1,1,1,1,0,0,4,0
7pxE4BFDibv6Q7MBbNOPQA,Los Rancheros,7125 Georgetown Rd,Indianapolis,IN,46268,39.8829229,-86.2435883,3.5,45,1,0,1,1,1,1,0,1,1,1,0,0,4,0
i6kNeNRrER8ocnpkBJ3wBA,Drexel Hill Pizza & Grill,4603 State Rd,Drexel Hill,PA,19026,39.9505756,-75.3120184,3.0,54,1,0,1,2,1,1,0,1,1,1,0,0,4,0
5QCLmv-JrdY0ZGc_D5__iw,Wheel Cafe,1140 Main St,Dunedin,FL,34698,28.019385,-82.7742533,4.5,68,0,0,1,1,1,1,0,1,1,1,1,0,2,0
G9JqaURDTC_pSzji0bytwA,Port St Peter,727 St Peter St,New Orleans,LA,70116,29.958496,-90.0652404,3.5,83,0,0,1,2,1,0,0,1,0,1,1,1,4,0
xPSetcLWfl_3JoENfGf89w,Sauce On The Side,1312-1314 Big Bend Rd,Ballwin,MO,63021,38.5667652088,-90.4985027735,4.0,37,1,0,1,1,1,0,0,1,1,1,1,0,1,0
xqEX7nzaESYmwyS5f_UI9g,Miami's Best Cuban By Los Maruchos,7194 Seminole Blvd,Seminole,FL,33772,27.8377084637,-82.7872937707,4.5,42,0,1,1,1,1,1,0,1,1,0,0,0,1,0
ziFtaIQdzQfFL79iLTq_zQ,Zac's Hamburgers,1301 E Macdade Blvd,Folsom,PA,19033,39.89378,-75.3197179,4.0,48,1,1,1,1,1,1,0,1,0,1,0,0,4,0
uE3yzH2l1A_FYciu95EptA,Koi Sushi & Thai,102 Lumber Dr,Franklin,TN,37064,35.8994368,-86.8755453,4.0,157,1,1,1,2,1,1,0,1,1,1,0,0,4,0
aYJjJMN8heS2PmkvsQzaZg,Treme Coffeehouse,1501 St Philip St,New Orleans,LA,70116,29.9654586,-90.0695669,4.5,137,0,1,1,1,1,1,0,1,1,1,1,0,1,0
yS0TsUzKBQlHQCZZeBrxww,Tortas El Guero,3818 N Highschool Rd,Indianapolis,IN,46254,39.8244846,-86.2709327,4.5,176,1,1,1,1,1,1,0,1,0,0,0,0,2,0
QkyEr9j7il9lJqseTbPe5w,Spasso Italian Grill,1 W State St,Media,PA,19063,39.9182380676,-75.3896167572,3.5,192,1,1,1,2,1,1,1,1,0,1,0,0,4,0
LqaIFNWnwmy3PInuBDpAxg,Amigos Mexican Restaurant,2919 W State St,Boise,ID,83702,43.632317,-116.2248715,4.0,96,0,0,1,2,1,1,0,1,1,1,0,0,4,0
A_-Vv5oKZNqxsV69_7E2KQ,8th & Union Kitchen,801 N Union St,Wilmington,DE,19805,39.7524434,-75.5711769,3.5,177,1,1,1,2,1,1,1,1,1,1,1,1,2,0
N1ZXhAVzOzbyCBPEXTaUUw,Tandoor Authentic Indian Restaurant,106 S 40th St,Philadelphia,PA,19104,39.9551144,-75.202451,3.5,148,1,0,1,2,1,1,1,1,1,1,0,0,1,0
CE9wc-UtRIwiyo5i4QO1Og,CACi Wood-Fired Sicilian Grill,1592 E Riverside Dr,Eagle,ID,83616,43.687375,-116.334128,4.0,156,0,1,1,2,1,0,1,1,1,1,1,1,4,0
CcqPX9PV6vHS7E9rYlgKoA,Racanelli's New York Pizzeria,6314 Delmar Blvd,University City,MO,63130,38.6555026,-90.3025432,3.5,45,1,0,1,1,1,1,0,1,0,1,0,0,4,0
AaWmckcT3O1iQSAIUmzwUA,Basimo Beach Cafe,"1261 Gulf Blvd, Ste 120",Clearwater,FL,33767,27.9519956663,-82.829717,4.0,339,1,1,1,2,1,1,1,1,1,0,1,0,1,0
vQ3bOb_sq0peWxJx3VoCDw,Jimmy B's Eatery & Pub,"10598 N College Ave, Ste 400",Indianapolis,IN,46280,39.9411009,-86.1463788,4.0,42,0,0,1,1,1,0,0,1,1,1,0,1,3,0
ryHhnOItSVPJB81Ty0Xb2g,Stonefire Tavern,10637 117th Dr N,Largo,FL,33773,27.8800115344,-82.786168,4.0,59,0,0,1,2,1,0,1,1,1,1,1,1,4,0
rTJCKclkU_ZnoQb4oKa9w,Fray's Donut House,5236 16th St N,Saint Petersburg,FL,33703,27.820184,-82.655327,4.5,60,0,1,1,1,0,1,0,1,1,1,0,0,1,0
SdZvOwgALlSBt8A0DvVkuQ,Reno Tap Room,6139 S Virginia St,Reno,NV,89502,39.469099,-119.786907,4.0,45,1,1,1,2,1,1,0,1,1,1,0,1,4,0
5TVWytR2oNbSKYgfxypuBw,La Patisserie Chouquette,1626 Tower Grove Ave,Saint Louis,MO,63110,38.6197152,-90.2556467,4.0,229,0,1,1,2,1,1,0,1,1,1,0,0,1,0
_1jlbXWMxN50PQlaRpev7A,Reytas Filipino Cuisine,1490 Haddonfield Berlin Rd,Cherry Hill,NJ,08003,39.8801882243,-75.0052480303,4.5,79,1,1,1,2,1,0,1,1,1,1,1,0,4,0
UFpCraqzFBAhtZqmxmiWsA,Cat Therapy,"1213 State St, Ste L",Santa Barbara,CA,93101,34.4233018995,-119.7054707479,4.5,116,0,0,1,1,0,1,0,0,1,0,1,0,1,0
y44MbCvvtmg1FpkNGSWisw,Tony's Luke,8500 Essington Ave,Philadelphia,PA,19153,39.8773236045,-75.2436721818,2.5,172,0,0,1,2,1,1,0,1,1,1,0,0,3,0
sway6xsRT_CUC6peK_Pyww,Bobby Hotel,230 4th Ave N,Nashville,TN,37219,36.1647114553,-86.7793040316,3.5,178,0,1,1,3,1,0,1,0,1,0,1,0,1,0
nVI9wI9ujmrutJRMgHKSIg,Fiesta Maya Mexican Grill,1178 Baltimore Pike,Springfield,PA,19064,39.9142377,-75.3478566,4.5,130,0,0,1,1,1,1,0,1,1,1,1,0,4,0
uxoQdZD3mEptaPohiLQg1w,Stone House Grille,1300 Hares Hill Rd,Kimberton,PA,19442,40.1298141,-75.5764069,4.5,56,1,1,1,1,1,0,0,1,1,0,1,0,1,0
vVvtWcFResspvcMMNRbYWA,Golden Corral Buffet & Grill,8928 US Hwy 19,Port Richey,FL,34668,28.287119,-82.712339,3.0,50,1,0,1,2,1,1,0,1,1,1,0,0,4,0
_49FsmTfruZSTjxU4OwOsg,Taziki's Mediterranean Cafe - West End,3001 W End Ave,Nashville,TN,37212,36.1436547,-86.8135218,3.5,120,1,1,1,2,1,1,0,1,1,1,0,0,4,0
94comc1YjKMNU-WSH-Fznw,Yakuza,13419 Olive Blvd,Chesterfield,MO,63017,38.6805692301,-90.497781965,3.0,32,0,0,1,2,1,1,1,1,1,1,0,0,1,0
5l67axuAa5EmEV3lLuSa1Q,Smashburger,3300 Magazine St,New Orleans,LA,70115,29.9233129,-90.0877986,3.0,167,0,1,1,1,1,1,0,1,1,1,0,0,4,0
E9-k8aOCS2sSh9RYxvWU_A,Steppy's Sports Bar & Grill,2912 Swede Rd,East Norriton,PA,19401,40.1455977,-75.3182664,3.0,69,1,1,1,2,1,1,0,1,1,1,0,0,2,0
HJNRlG5nM4Bxy97PmNNaTQ,Aman's Indian Bistro,690 Main St,Harleysville,PA,19438,40.2867500339,-75.3982785895,4.5,38,0,0,1,2,1,1,1,1,1,1,1,0,1,0
AuTmUY381to83xPwovoERg,Wingstop,127 Gallatin Pike N,Madison,TN,37115,36.2649788207,-86.712538285,2.5,31,1,0,1,1,1,1,0,1,0,1,0,0,2,0
jlkDIOPoRP9SJXTkRVpkMQ,BFF Cafe,"3594 W Plumb Ln, Ste A",Reno,NV,89509,39.5001633,-119.8576794,4.0,92,1,1,1,2,1,1,0,1,1,1,1,1,4,0
yzRC9gyhblU3a5hDct2S2Q,Hykel's Submarine Sandwich-Bar,2704 E County Line Rd,Ardmore,PA,19003,40.000783,-75.2964267,4.0,34,0,1,1,2,1,1,0,1,1,1,0,0,4,0
IS0B5nLJPluVT8NwGgospA,Cheddar's Scratch Kitchen,6600 N Illinois St,Fairview Heights,IL,62208,38.5965175492,-89.9841942417,2.5,187,0,0,1,2,1,1,0,1,1,1,1,0,4,0
dERS4qwl9v-Gwft-Ug8APA,West Ave Grille Jenkintown Restaurant and Food Truck ,718 West Ave,Jenkintown,PA,19046,40.0957738,-75.1265509,4.0,277,1,1,1,2,1,1,0,1,1,1,1,0,4,0
Xjal8g4PsYinAfeQ8RWf4Q,Wasabi2,1375 Dilworthtown Crossing,West Chester,PA,19382,39.9037528,-75.5625925,4.5,78,1,1,1,2,1,1,1,1,1,1,1,0,2,0
JStjL-8mRZq4ov4uI1FaQ,Luberto's Brickoven Pizza,169 N Main St,Dublin,PA,18917,40.3753297,-75.208113,4.0,96,1,0,1,2,1,1,0,1,0,1,1,0,4,0
v8IbZ6wcvdyGqWpbDKDvfA,YO! Sushi,"International Plz, 2223 N Westshore Blvd",Tampa,FL,33607,27.964536,-82.520756,4.0,121,1,0,1,2,1,1,0,1,1,1,1,1,4,0
U30ggGzFpXvc2NZYwOW3qg,Mood Cafe,4618 Baltimore Ave,Philadelphia,PA,19143,39.9486639126,-75.2158315415,4.5,458,1,1,1,1,1,1,0,1,0,1,0,0,1,0
X64JH5kXOjWsBCsGxmFSIw,Cinco de Mayo,14795 Lebanon Rd,Old Hickory,TN,37138,36.2197054,-86.5722192,3.5,35,1,1,1,1,1,1,0,1,1,1,0,0,4,0
NKplFLr1UebQxMLQAxALPQ,Tandoor & Tikka,5320 E 82nd St,Indianapolis,IN,46250,39.905788,-86.077582,3.5,78,1,0,1,1,1,0,0,1,1,0,1,0,1,0
0t14RIHl4wODz7LRiRRQ0Q,Salty Lime Cantina,1019 Florida Ave,Palm Harbor,FL,34683,28.0783137,-82.7666322,4.5,103,0,1,0,2,0,0,0,1,0,0,1,0,1,0
jLaPtjlLfRSaoBWIcHcSQg,The Mad Crab,8080 Olive Blvd,University City,MO,63130,38.6727336,-90.345018,3.5,156,1,1,1,2,1,1,0,1,1,1,1,1,4,0
Z5LGSHEYjCUtKwjKotCNqA,Chinese Delight,735 W Lancaster Ave,Wayne,PA,19087,40.0477909,-75.409318,3.0,52,1,0,1,2,1,1,0,1,0,1,0,0,1,0
VZfc50XVwgdCecH4YbGNFg,EATS! American Grill,4502 S Dale Mabry Hwy,Tampa,FL,33611,27.902583,-82.505631,4.0,323,1,1,1,2,1,1,0,1,1,1,0,1,4,0
68ThEdiK0eWCEgGEmV9Tng,Southgate,1801 Lombard St,Philadelphia,PA,19146,39.9455687,-75.1717901,4.0,323,1,1,1,2,1,0,1,1,0,1,0,1,4,0
btycQr2eJqbNbArJdUxMmQ,New Golden Buffet,"700 Nutt Rd, Ste 701",Phoenixville,PA,19460,40.133113,-75.5342207,2.5,30,1,0,1,2,1,0,1,1,1,1,0,0,1,0
VOEN8f9WEysinBsLqbiVqg,Andrea's Restaurant,3100 19th St,Metairie,LA,70002,30.0073382,-90.1538509,2.5,218,1,1,1,3,1,1,1,1,1,1,0,1,1,0
gzln_L7ch8z-Ob6autmumw,Trip's Diner,10555 Park Blvd,Seminole,FL,33772,27.8399412788,-82.7854389294,4.0,223,0,1,1,1,1,1,0,1,1,1,1,0,4,0
USyJiGIvZ8fHjRVaVTu1Zw,Tony Jr's,118 S 18th St,Philadelphia,PA,19103,39.951157,-75.170714,3.0,71,1,0,1,1,1,1,0,1,0,1,0,0,4,0
c7DQU8rHH_GjLdeIvanQmg,Coco's Cocina Tex Mex  Restaurant,32 South Broadway,Pitman,NJ,08071,39.732375,-75.130925,3.5,59,1,0,1,2,1,1,1,1,1,1,1,1,1,0
N5QQdPac1cXwOHr-ePr90g,5th St. Bakehouse,953 W 5th St,Reno,NV,89503,39.5289273,-119.8280683,4.0,181,0,1,1,1,1,1,1,1,1,0,0,0,4,0
h2nBTqJVHAyltyeq7sZZ-w,Blueplate,47 S Main St,Mullica Hill,NJ,08062,39.7322517,-75.2240679,4.0,232,1,1,1,2,1,1,0,1,0,1,0,0,4,0
cEG1r9aRMJwmRQVkh7eiJg,Falls Deli,3492 Tilden St,Philadelphia,PA,19129,40.0128847,-75.1901845,4.5,31,1,1,1,1,1,0,0,1,1,0,0,0,1,0
8s1uT8dyBEUwTNeHoZntMg,El Rey,139 2nd Ave N,Nashville,TN,37201,36.1629191,-86.7761598,3.0,89,0,1,1,1,1,1,0,1,1,1,0,0,4,0
LC-qVqvkMRmK_ed-SImCXQ,Salvatore's Trattoria & Pizzeria,221 N Henderson Rd,King of Prussia,PA,19406,40.0972098875,-75.3668700904,3.5,38,1,0,1,1,0,1,0,1,0,0,0,0,1,0
9dm_v79s9-pefMahqp1SkA,Loco Mexican Restaurant & Cantina,2205 N Delaware St,Indianapolis,IN,46205,39.7974826702,-86.1530939541,4.0,178,1,1,1,2,1,1,0,1,0,1,1,1,4,0
nFjk0xVI9fNiVN__5g-m8Q,Ichicoro Ane,"260 1st Ave S, Ste 100",Saint Petersburg,FL,33701,27.7701014,-82.6364594,4.0,264,1,0,1,2,1,1,1,1,1,1,1,1,3,0
TttFjRQ-8Iz8by4hsD7iOQ,Angelina's,743 S 8th St,Philadelphia,PA,19147,39.940221217,-75.1557966694,4.5,49,1,0,0,3,1,0,1,0,1,1,0,0,4,0
niEm9LkcLOrvsDzjXD6WpQ,New Orleans Hamburger & Seafood Co.,2515 B Manhattan Blvd,Harvey,LA,70058,29.8768457,-90.0482728,3.5,113,1,1,1,2,1,1,0,1,1,1,0,0,4,0
V4THIJk9uhoxL7f06fK5VA,Roundabout Catering,631 Dunn Cir,Sparks,NV,89431,39.528286,-119.734864,5.0,38,0,0,1,1,0,0,0,0,0,0,0,0,1,0
mGpLYGly9TmJsWiELfHXYg,Raz'z Restaurant,408 Sam Ridley Pkwy,Smyrna,TN,37167,35.986072,-86.549655,3.5,44,0,1,1,2,1,1,1,1,1,1,0,0,4,0
_cndcbuaqSRW5f-MeZasNw,Toyama Japanese Steak House,15532 Old Hickory Blvd,Nashville,TN,37211,36.040788,-86.7402801,3.0,142,0,0,1,2,1,1,1,1,0,1,0,0,4,0
0oogOBGXNj39Wnl2SKoe0w,Breakfast Club,10150 US Highway 19,Port Richey,FL,34668,28.3052669,-82.7011217,4.5,80,1,0,1,1,1,1,1,1,1,1,0,0,2,0
iq0qAJ2Oc3myUTTMLseTXA,Lorenzo & Sons Pizza,27 North High St,West Chester,PA,19380,39.9604595,-75.6049474,3.5,71,1,0,1,1,1,1,0,1,0,1,0,0,4,0
tXf6TpqHOLiwyMNbYAOOCQ,The Little Lamb,"2475 N McMullen Booth Rd, Ste J",Clearwater,FL,33759,28.0114224507,-82.7109746614,4.5,307,0,1,1,2,1,0,1,1,1,1,1,0,1,0
WQ832PDnsDshhbQFm83ISg,Villagio Cinemas,11778 N Dale Mabry Hwy,Tampa,FL,33618,28.055282,-82.506247,3.0,285,1,0,1,2,1,1,1,1,1,1,1,0,1,0
Y3ZCO17N1_T_Ms1JmswwzA,Taqueria Pico De Gallo,2618 S 6th Ave,Tucson,AZ,85713,32.1920174772,-110.968540052,4.0,397,1,1,1,1,1,1,0,1,0,1,1,1,4,0
di5ihAL9VWoctHelY8kLTQ,Gigi and Big R,38th and Spruce,Philadelphia,PA,19104,39.9512903,-75.1992768,4.0,81,1,0,0,2,1,0,0,1,0,0,0,0,4,0
TTsBa6e2qgIEkiFQfYLmYA,Twistee Treat - New Tampa,8810 New Tampa Blvd,Tampa,FL,33647,28.1440679511,-82.3539949058,3.5,70,0,1,1,1,0,1,0,1,1,1,1,0,4,0
zxpJ4Frr8Zoru-YaNzOxzw,China Spring,8165 Hwy 100,Nashville,TN,37221,36.0441354,-86.9579331,3.5,33,1,0,1,1,1,1,0,1,0,0,0,0,4,0
j5U5O3scMvPe67jzJcWFug,Zaxby's Chicken Fingers & Buffalo Wings,11619 W Hillsborough Ave,Tampa,FL,33635,28.0146920537,-82.6140054742,3.0,37,1,0,1,1,1,1,0,1,1,1,0,0,1,0
RCguFZat10TcbDMeeeM3IQ,El Pollo Loco,8030 S Virginia St,Reno,NV,89511,39.4555489488,-119.7781964498,3.0,73,1,0,1,1,1,1,0,1,0,1,0,0,4,0
IZv79jZv6el1sBHrG7426g,J Gilbert's Wood-Fired Steaks & Seafood St Louis,"17A W County Ctr, Ste A102",Des Peres,MO,63131,38.6017712,-90.4475467,4.0,268,1,1,1,3,1,0,1,1,1,1,1,1,4,0
zzHtFjfM7NvuVM1HTsCLGA,Nom Nom Japanese Kitchen,35 W Lancaster Ave,Paoli,PA,19301,40.0420645,-75.4858339,4.5,35,1,0,0,2,1,0,0,1,0,0,0,0,1,0
Pb5agnsD9EdCl6yuZp2jJA,O Sole Mio,250 Catharine St,Philadelphia,PA,19147,39.9378287,-75.1482632,4.5,85,1,1,1,1,1,1,1,1,0,1,1,0,1,0
WMgB7_odx8hk3BFQAIZ5hQ,Thai Phooket Smyrna,"1890 Almaville Rd, Ste 100",Smyrna,TN,37167,35.9317024,-86.5338211,4.0,76,1,0,1,2,1,1,0,1,1,1,0,0,4,0
HJe8eEH5qXRjQMAh1VfV_w,Kobe Japanese Steakhouse,2773 66th St N,St. Petersburg,FL,33710,27.7969526,-82.7278308,4.5,91,1,0,1,1,1,0,1,1,0,1,0,1,1,0
XsjesLpDVSToQIxSeON70A,Pizza Hut,202 Lemmon Dr,Reno,NV,89506,39.6132777,-119.8478089,2.0,48,1,0,1,1,0,1,0,1,1,1,0,0,1,0
_uQEKHH0R5fxrYkLrUI9pQ,Gu Wei Noodles & Grill,"18101 Highwoods Preserve Pkwy, Ste 100",Tampa,FL,33647,28.1316091,-82.3691327,4.5,40,1,0,1,1,1,0,0,1,1,0,1,0,1,0
lhsQkb5nhf-Kd5OvgB9MNg,Sachiko Sushi,3210 E Valencia Rd,Tucson,AZ,85706,32.1336786,-110.9234427,3.5,191,1,0,1,2,1,1,1,1,1,1,0,0,2,0
ilVGsC87BfopszGWw2qdXg,Spice Kitchen,2717 Ridge Pike,Trooper,PA,19403,40.1462266587,-75.3931311565,3.0,49,1,0,1,2,1,1,1,1,0,1,0,0,4,0
plobBsTtVUODb353xxFT_g,Sushi Rose,"2005 Sierra Highlands Dr, Ste 147A",Reno,NV,89523,39.5347847599,-119.8694408537,3.5,634,1,1,1,2,1,1,1,1,1,1,0,1,4,0
LTTRaIO-p4zjvXtw9zm1Wg,Mi Caribe,3701 Lindell Blvd,Saint Louis,MO,63108,38.638548,-90.2366249,4.0,96,0,1,1,2,1,1,1,1,1,1,0,1,4,0
ARgidflSXPHj7uhK-Y7hwA,Kampai Sushi Bar,4949 W Pine Blvd,St Louis,MO,63108,38.642407,-90.2632879,4.0,328,1,1,1,2,1,1,1,1,0,1,0,1,1,0
rD5cJ74ZX4UiBo1geRljPw,Spot House Restaurant and Bar,20 mullanphy gardens,Florissant,MO,63031,38.8143567036,-90.3451039549,4.5,53,0,0,1,2,1,1,1,1,1,1,1,0,4,0
368cyArdo0P0aDUOhhE4PA,PANA Donuts Coffee & Boba Tea,5370 E Thompson Rd,Indianapolis,IN,46237,39.6933973,-86.0761149,4.5,163,1,0,1,1,0,0,0,1,1,0,1,0,1,0
sSGKR1V1oBm7BJicIXozg,Barra Rossa Ristorante & Wine Bar - Downington,20 E Lancaster Ave,Downingtown,PA,19335,40.0060495,-75.7049884,3.0,100,0,1,1,2,1,1,1,1,0,1,0,1,4,0
d7qakwHU-hsjUgf2VypdHA,Bhann Thai,3276 Rider Trl S,Earth City,MO,63045,38.761428,-90.454992,3.0,47,1,0,1,1,1,1,0,1,1,0,0,0,1,0
TO1twT7_FLMbNeDm3KNNRw,F & M Delicatessen,3701 Church Rd,Mount Laurel,NJ,08054,39.930791,-74.9770416,3.5,67,1,0,1,2,1,1,1,1,0,1,0,0,1,0
Bw0cpnfI-Y9QmjWzqS-oFg,Izumi,1601 E Passyunk Ave,Philadelphia,PA,19148,39.929738,-75.1633963,4.0,219,0,1,1,2,1,0,1,1,1,1,0,0,4,0
1w1H1kYUN60zpfdP-0qmGQ,Machismo Burrito Bar,8500 Henry Ave,Philadelphia,PA,19128,40.0626011,-75.2372078,3.0,30,1,0,1,1,1,1,0,1,1,1,0,0,1,0
I1h0GRYp86eX-XqwVXsSGA,Zeko's Mediterranean Grill,3609 E Busch Blvd,Tampa,FL,33612,28.0322261,-82.4189253,4.5,345,1,1,1,2,1,1,0,1,1,1,0,0,4,0
WaRZsQEcEHwRk0T2dJ-cuA,La Casita,634 Julia St,New Orleans,LA,70130,29.9458122,-90.0712732,4.0,202,1,1,1,2,1,0,1,1,1,1,0,1,4,0
0zH0l4Jbf-oove3cLvrFOg,Vecchia Osteria,20 Richboro Rd,Newtown,PA,18940,40.2280271,-74.9401945,4.0,359,1,1,1,2,1,1,1,1,1,1,0,0,4,0
7UxNDF6ZpabC3O0-Qbg3Xw,Yama Japanese Restaurant,1570 Rt 38,Lumberton,NJ,08048,39.981839,-74.7987789,3.0,52,0,0,1,2,1,1,1,1,0,1,0,0,1,0
fJNSx1WOo77TmP7Bl26w_g,Washington Crossing Inn,1295 General Washington Memorial Blvd,Washington Crossing,PA,18977,40.293684,-74.871315,4.0,144,1,1,1,2,1,0,1,1,0,1,1,1,4,0
OScd9IP5nI7Cv9HDkrXDDA,Abbruzzi & Giunta's Italian Market,3211 Rt 38,Mount Laurel,NJ,08054,39.9702646,-74.8841016,4.5,44,1,0,1,2,1,0,0,1,1,0,0,0,1,0
JOvNunKJlWhwJRwLmUR9ZA,Tryst Gastro Lounge,240 Beach Dr NE,St Petersburg,FL,33701,27.7745220251,-82.6327141048,3.5,295,1,1,1,2,1,0,1,1,1,1,1,1,4,0
ruFtZKwlJASx5BTk1dh5AQ,Wendy's,440 N Mccarran Blvd,Sparks,NV,89431,39.5380547,-119.734624,2.5,35,1,0,1,1,1,1,0,1,0,1,0,0,2,0
yBebHQPEvz8OtYKUO45QCw,Eden Korean Restaurant,1892 Marlton Pike E,Cherry Hill,NJ,08034,39.9110535,-74.9915109,4.5,32,0,0,1,2,0,1,1,1,1,1,0,0,4,0
b-EHLoRBtVgOpkv6-i1pSA,Huge Impact Restaurant,5110 W 38th St,Indianapolis,IN,46254,39.8239812,-86.247598,3.5,36,1,1,1,2,0,1,1,1,0,1,0,0,1,0
3VKE0_-KhU_qMYHxcyVcDg,Just To Serve You Too,5132 N 5th St,Philadelphia,PA,19120,40.029648,-75.1322934,3.0,68,1,0,1,2,1,1,1,1,1,1,0,0,2,0
y5o2VSvj42KrXrotY3GTgA,Guo Bin Chinese Restaurant,8600 Delmar Blvd,Saint Louis,MO,63124,38.66029492,-90.3585147858,3.5,51,1,0,1,2,1,1,1,1,0,1,0,0,1,0
vG9aD-fvsIimgo-l7u8-AA,P.F. Chang's,439 Cool Springs Blvd,Franklin,TN,37067,35.9467222474,-86.8257665634,2.5,181,1,1,1,2,1,1,1,1,1,1,0,1,4,0
kJpoduG3wdA35WzOF_T1Aw,Mexico Lindo,6050 Park Blvd,Pinellas Park,FL,33781,27.838651,-82.7173312,4.5,54,0,1,1,1,1,1,0,1,0,1,0,0,4,0
kgMEBZG6rjkGeFzPaIM4MQ,McDonald's,914 S Broad St,Philadelphia,PA,19146,39.9394402,-75.1668049,2.0,55,1,1,1,1,1,1,0,1,1,0,1,0,4,0
pJZq57-XUXnDU2yo8gmsUg,Zagol Ethiopian Restaurant,855 E 4th St,Reno,NV,89512,39.5322332,-119.8028435,4.0,160,0,0,1,2,1,1,1,1,0,1,0,0,1,0
2y_CdkxEOJEJGyJApfCYpA,Rode's Fireside Restaurant & Tavern,533 Kings Hwy,Woolwich Twp,NJ,08085,39.7532524,-75.3024859,3.5,104,0,1,1,2,1,1,1,1,1,1,0,0,4,0
bc3K8KvLkLNu_XU3RkeeeA,LeBuzz Caffe,"2930 N Swan Rd, Ste 127",Tucson,AZ,85712,32.260933,-110.891826,4.0,33,0,1,0,1,0,0,0,1,1,0,0,0,1,0
s3FRhtaNU8dt-mKkLKUQaQ,RuSan's Sushi and Seafood,505 12th Ave S,Nashville,TN,37212,36.1518970081,-86.7848066755,3.0,206,0,1,1,2,1,0,1,1,1,1,0,1,4,0
fKDV_dlDhXd7P5kZi97Kng,The Spot,272 S 20th St,Philadelphia,PA,19103,39.9483749,-75.1744886,3.0,80,1,0,1,1,1,1,0,1,0,1,0,0,1,0
JRoY9Mx2LghIki2Uo1SOJA,The Wine Tap,223 E Main St,Belleville,IL,62220,38.5137923,-89.9805554,4.5,93,0,1,1,2,1,0,1,1,1,1,0,0,4,0
m6KZGTxRb9_ZyDpB1G6O1Q,Freddy's Frozen Custard & Steakburgers,3725 W Orange Grove Rd,Marana,AZ,85741,32.3232068,-111.0442513,3.5,112,1,1,1,1,1,1,0,1,0,1,0,0,4,0
KPmFv_Ou6ddauV_gYauWzg,Taquería La Juquilita,5913 Morrow Rd,Nashville,TN,37209,36.1621286521,-86.8611215519,4.5,74,0,0,0,1,1,1,0,1,0,0,0,0,4,0
nteD5A6CKXZPqbR9EltQng,Super China Chinese Restaurant,8663 Little Rd,Port Richey,FL,34654,28.283355,-82.677826,4.0,54,1,0,1,1,1,1,0,1,1,1,0,0,1,0
Ktw3a8hXOKL00UCk_1nSEQ,Bully's Sports Bar & Grill,9725 Pyramid Hwy,Sparks,NV,89441,39.640527,-119.71245,2.5,126,1,1,1,2,1,1,0,1,1,1,0,1,2,0
uFF40n9pOqHK1ciajdoSEw,Tony's Restaurant,699 Linden Ave,Carpinteria,CA,93013,34.396988,-119.5210305,3.0,72,1,1,1,2,1,1,1,1,0,1,0,0,4,0
XgLrkmIqIrD_pl67lAovEQ,The Bourse,111 S Independence Mall E,Philadelphia,PA,19106,39.9498192516,-75.1486551501,2.0,35,1,1,1,2,1,1,0,1,1,1,1,0,2,0
sLgnx_WFCjEoPsS6NwU70Q,Le Peep,3036 N Eagle Rd,Meridian,ID,83646,43.6327829,-116.3523931,4.0,259,1,1,1,1,1,1,0,1,1,1,1,0,4,0
ZJC0ONdxmIlwidXd8E0fXg,BoomBozz Craft Pizza & Taphouse,8016 Hwy 100,Nashville,TN,37221,36.047064,-86.951448,3.5,57,1,0,1,1,1,0,0,1,1,0,1,1,1,0
zwfN21b6gN2XGjNG6MYNzQ,Wolfgang Puck Express,2500 S High School Rd,Indianapolis,IN,46241,39.7166926914,-86.2978263572,2.0,70,0,0,1,2,1,1,0,1,1,0,0,0,4,0
XyGRDrgCK0z4CiA6nhwEaw,Persian Room Fine Dining,"9290 N Thornydale Rd, Ste 100",Tucson,AZ,85742,32.3750163,-111.0463201,4.5,258,1,0,1,2,1,1,1,1,1,1,0,1,1,0
mygIk3l_ShNNB-QbWlrRyg,Zydeco's,7010 Hwy 23,Belle Chasse,LA,70037,29.8777671,-90.0173044,3.5,161,0,0,1,2,1,1,0,1,0,1,1,0,4,0
BiBwdFcG0ynK50_g7zJTOg,Chopt Creative Salad Co.,"211 Franklin Rd, Ste 160",Brentwood,TN,37027,36.032004,-86.79085,3.5,135,1,1,1,2,1,1,0,1,1,1,0,0,4,0
Ryt1Fhgz7sixMQSJiLyP_g,Zocalo,3600 Lancaster Ave,Philadelphia,PA,19104,39.9584222,-75.1938661,2.5,59,0,1,1,2,1,1,1,1,0,1,0,1,4,0
B6qHZCAs7Nka-1zdjCzAIQ,Butter's Soul Food,2730 W Girard Ave,Philadelphia,PA,19130,39.9741307,-75.1815903,3.0,77,1,1,1,2,1,1,0,1,0,0,0,0,1,0
mtGTna-hyFhErb4Zma32IA,The Village Diner,299 Keswick Ave,Glenside,PA,19038,40.106526,-75.147507,3.5,80,0,1,1,1,1,1,0,1,1,1,0,0,4,0
XQfwVwDr-v0ZS3_CbbE5Xw,Turning Point of North Wales,1460 Bethlehem Pike,North Wales,PA,19454,40.2101961875,-75.2236385919,3.0,169,1,1,1,2,1,1,0,1,1,1,1,0,4,0
tiVQ9_qoatNn--ITbMWRpA,RJ's Bagels,107 Makefield Rd,Yardley,PA,19067,40.201773,-74.820914,4.0,41,0,0,1,1,0,0,0,1,0,0,0,0,1,0
pEYs1oVeJ6YM2SG5WEr5Pg,Burger Theory,8555 Stansted Dr,Indianapolis,IN,46241,39.675040703,-86.3103263801,4.0,86,1,1,1,2,1,1,0,1,1,1,1,0,4,0
3-6BB10tIWNKGEF0Es2BA,The 81 Hong Kong Cafe,"625 E Wetmore Rd, Ste 109",Tucson,AZ,85705,32.2885403,-110.9631443,4.0,133,1,0,1,2,1,0,1,1,1,0,1,0,1,0
78e90HO_R40SyzBr4fnHSA,Primanti Bros - Indianapolis,49 W Maryland St,Indianapolis,IN,46204,39.7655226364,-86.1597495695,3.5,221,1,1,1,2,1,1,0,1,1,1,0,1,4,0
zhFKtchGIpRTfOZSpm4Zvg,Capriotti's Sandwich Shop,117 E Swedesford Rd,Exton,PA,19341,40.0361194,-75.6286593294,3.5,38,1,1,1,1,1,1,0,1,0,1,1,0,4,0
nIE7ph1w_bttQMJQx5hUEQ,D-Town Bar & Grill,1056 Main St,Dunedin,FL,34698,28.0192509782,-82.774851719,3.0,91,1,0,1,2,1,1,1,1,1,1,1,1,2,0
yjYNk2K77o34anIhS4zJyg,McAlister's Deli,"170 Gravois Bluffs Circle Dr, Ste G",Fenton,MO,63026,38.5033740941,-90.4449900528,3.5,46,1,1,1,1,1,1,1,1,1,1,0,0,3,0
cLlBDZxYJ1dt1JgMuZnXew,Olly,700 S 5th St,Philadelphia,PA,19147,39.9408776,-75.1511064,4.0,51,0,0,1,1,1,1,0,0,0,0,0,0,4,0
MMRRS6YhVRx_iN5-JhMRYg,Han Dynasty,3711 Market St,Philadelphia,PA,19104,39.9567105161,-75.1971027811,4.0,783,1,1,1,2,1,1,1,1,0,1,0,1,4,0
F_wIC6i5y4zdQyp99R7PdQ,Blueberry Hill Pancake House,7803 E Washington St,Indianapolis,IN,46219,39.7723413,-86.0279803,3.5,101,1,0,1,1,1,1,1,1,1,1,0,0,4,0
icp_IKE9zIkAqAucyS1vTA,Hakka Beef House,927 Race St,Philadelphia,PA,19107,39.9554945,-75.1552563,4.5,33,1,0,1,2,1,1,0,1,1,1,0,0,1,0
JVekj-AqcU46mg7rzN_nOg,Oceanos Restaurant,222 Haddon Ave,West Berlin,NJ,08091,39.8130665,-74.9442129,3.5,32,1,0,1,2,1,1,1,1,1,1,0,0,1,0
cGa8ySpfmtfQKPkHJKHnUw,Michael's Family Restaurant,709 Bethlehem Pike,Montgomeryville,PA,18936,40.2501979,-75.2450803,3.0,81,1,0,1,1,1,1,0,1,1,1,0,0,4,0
SZgkdhd837HkbtVFVmSMXw,Guido's Italian Restaurant,7219 Forest Oaks Blvd,Spring Hill,FL,34606,28.4918471,-82.5973869,3.5,128,1,1,1,2,1,1,1,1,0,1,1,0,4,0
LgiAzhOqrzl95NNRLziH2A,3 Agaves Mexican Restaurant & Cantina,"7840 E US Hwy 36, GH",Avon,IN,46123,39.7642463948,-86.3839582,4.0,50,1,1,1,1,0,0,0,1,0,0,0,1,1,0
8uF-bhJFgT4Tn6DTb27viA,District Donuts Sliders Brew,2209 Magazine St,New Orleans,LA,70130,29.9294259,-90.0770687,4.5,2062,1,1,1,1,1,1,0,1,1,1,1,1,4,0
g_nLH7QGP3_l1eE-7JWhwA,Smees Alaskan Fish Bar & Marketplace,5635 Meadowood Mall Cir,Reno,NV,89502,39.4742257,-119.7795102,4.5,97,0,1,1,2,1,1,0,1,0,1,1,0,4,0
7biQIoyOEMcBGUw106UeOQ,Domino's Pizza,833 W Trenton Ave,Morrisville,PA,19067,40.20841,-74.799468,1.5,31,1,0,0,1,1,0,0,1,0,0,0,0,1,0
p21PCK17H3WL56KSr4Ykig,ABC Pizza House,1242 W Hillsborough Ave,Tampa,FL,33603,27.99554,-82.4743805,4.0,121,1,0,1,1,1,1,0,1,1,1,1,0,2,0
Rl7W2JPAUWFo2ZZdVeGAWA,Koffee Korner Cafe,201 N Broad St,Lansdale,PA,19446,40.2419927,-75.2829764,3.5,59,0,0,0,1,1,1,0,1,0,1,0,0,4,0
Llu8_Lx2DFthmr99_eiOLA,Wei Hong Bakery & Restaurant,3175 S Grand Blvd,Saint Louis,MO,63118,38.6002991,-90.2429828,4.0,135,0,0,1,1,1,1,0,1,0,1,0,0,4,0
3n_G-_DwOJ2VS4uGxBN6sg,Lan Zhou Lamen,2716 E Fowler Ave,Tampa,FL,33612,28.0554349,-82.4292524,4.0,78,1,0,1,1,0,0,0,1,0,1,0,0,1,0
A0F-h3xJm_6gHDKcDQwSrQ,Capogiro Gelato,3925 Walnut St,Philadelphia,PA,19104,39.9541715545,-75.2013800841,4.0,252,0,1,1,2,1,1,0,1,1,1,0,1,2,0
ymoEdJB5NE56sWw74uyX7A,Sushi Bar,911 Broad Ripple Rd,Indianapolis,IN,46220,39.8694324,-86.1425102,4.0,346,1,1,1,2,1,1,1,1,1,1,1,1,4,0
4-y4Jj8hNuVIFktoYnm3-Q,Bella Pizzeria,3367 E 86th St,Indianapolis,IN,46240,39.9108087,-86.1081565,3.0,66,1,1,1,1,1,1,0,1,1,1,0,0,1,0
mKZEuPNLVe4yRL0UfxFPTg,Season's Fresh,2816 E Bearss Ave,Tampa,FL,33613,28.0812683681,-82.4279611613,4.5,104,1,1,1,2,1,1,1,1,1,1,1,0,1,0
AODksDNj5mH953cyhUG1Qw,Thai 5 Fast Food,3424 S Dale Mabry Hwy,Tampa,FL,33629,27.9120596,-82.5057677,4.0,336,1,1,1,2,1,1,0,1,1,1,1,0,2,0
RWOqFGfUrdL60jOrtxmcGw,Osaka,15115 Madeira Way,Madeira Beach,FL,33708,27.8020018,-82.8020813,4.0,49,0,0,1,2,1,1,1,1,0,1,0,0,4,0
tFpstYqxugKHzeyNUsuD_A,The Pint Room,110 W Main St,Carmel,IN,46032,39.9785056799,-86.1286025097,4.0,423,1,1,1,2,1,1,0,1,1,1,1,0,2,0
3y61A28PQDZ4weeeTRfIlA,Burger Study,28 W Georgia St,Indianapolis,IN,46225,39.7643833,-86.1588649,4.0,441,1,1,1,2,1,1,1,1,1,1,0,1,4,0
qONvIS94nZhXYm-jccXyuw,Top Hog,642 Blythe St,Gallatin,TN,37066,36.398778,-86.451974,4.5,140,0,1,0,1,1,1,0,1,1,1,0,0,2,0
sVWUxesVKseXGq78UwwajA,Steak ’n Shake,9116 US Highway 19 N,Port Richey,FL,34668,28.2899929559,-82.711233436,2.5,45,1,0,1,1,1,1,0,1,1,1,0,1,4,0
Tt4byMYA7FvAkQ3MigcJWQ,Mojitos Rum Bar & Grill,437 Esplanade Ave,New Orleans,LA,70116,29.9618438,-90.0576285,3.5,74,0,1,1,2,1,1,1,1,1,1,0,1,4,0
SuQgcpL-aZeuyRjBdA0pHw,Samurai Japanese Restaurant,1201 W Lancaster Ave,Rosemont,PA,19010,40.0255409855,-75.3262319244,3.5,69,1,0,1,2,1,1,1,1,1,1,0,0,1,0
ugSVRAKO6mxvsrElFg8USw,México Lindo,700 Moore St,Philadelphia,PA,19148,39.926402,-75.1575374,4.5,73,1,0,0,1,1,1,0,1,1,1,0,0,1,0
mpVZG520RL-K1YeQi55ZPg,The Blarney Stone,3929 Sansom St,Philadelphia,PA,19104,39.9548253,-75.2009783,3.5,46,1,0,1,1,1,0,0,1,0,1,0,0,4,0
wnjFEC-w0qWnyDnO8k1RpA,Nectar Urban Cantina,206 McGavock Pike,Nashville,TN,37214,36.16813138,-86.6804685,4.5,390,1,1,1,2,1,1,0,1,1,1,1,1,4,0
YCwWrnOh8qUmQbgQ4p02AA,Alfredo's Pizza,2900 W Chester Pike,Broomall,PA,19008,39.9829917462,-75.3714380349,4.5,79,1,0,1,2,1,1,0,1,0,1,0,0,4,0
qmxmUc4xzNt3ogaZLH8Eiw,Versi Vino,461 Route 38 W,Maple Shade,NJ,08052,39.9422608,-74.9955305,5.0,60,0,1,1,2,1,0,1,1,1,1,1,1,1,0
SjLYEsv94TjmSjG2Fc2piQ,Pizzarella Grille,958 County Line Rd,Bryn Mawr,PA,19010,40.02132,-75.32528,3.5,58,1,0,1,1,1,1,1,1,1,1,1,0,4,0
Yh4OgbXQSpQ_ycK_FmNiGw,Suis Generis,3219 Burgundy St,New Orleans,LA,70117,29.9649909096,-90.0426163126,4.0,100,1,1,1,2,1,0,0,1,0,1,0,0,4,0
U8jSYiECyAljqTL2U1ERGw,Bamboo House of Noodle Soups,"Marketplace Shopping Ctr, 1502 W Chester Pike",West Chester,PA,19382,39.965781755,-75.5275749265,4.0,52,0,0,1,2,1,1,1,1,0,1,0,0,1,0
utReYPKNKwb15UytLOr-Xw,Newtown Bagel,31 Swamp Rd,Newtown,PA,18940,40.2289953,-74.9410147,3.0,63,1,0,1,1,1,0,0,1,1,0,1,0,1,0
2Q1R2OhBbAQ581vK_r7NhA,Ooka Restaurant,1109 Easton Rd,Willow Grove,PA,19090,40.1566693,-75.121837,4.0,394,0,0,1,2,1,1,1,1,0,1,0,0,4,0
fsPqRDDG2igV63nP89xWUA,Concord Steaks,257 Wilmington W Chester Pike,Chadds Ford,PA,19342,39.852706,-75.539011,3.5,33,1,1,1,1,1,1,0,1,1,1,1,0,1,0
dDn_NVOQh9F-t153S035Ew,Rice Box,119 Northcreek Blvd,Goodlettsville,TN,37072,36.3265562,-86.6993617,4.0,67,0,0,1,2,1,1,0,1,1,1,0,0,1,0
9MHe5jAym2d8VhT_NbCRyw,Bamboo House,5213 E Thompson Rd,Indianapolis,IN,46237,39.6933755014,-86.07983582,2.5,49,1,0,1,1,1,1,0,1,0,1,0,0,4,0
zSqTndm5Alq9dW1PyzbdTA,Grand Isle,575 Convention Center Blvd,New Orleans,LA,70130,29.9475671,-90.0651152,4.0,588,1,1,1,2,1,1,1,1,1,1,1,1,4,0
jAGzl-N2GINB_wK87bjoVA,RJS Tacos & Burritos,1024 N Shadeland Ave,Indianapolis,IN,46219,39.7826835,-86.0464533,4.0,42,1,0,1,1,0,1,0,1,1,1,0,0,1,0
iDGohK_mkqnAfLeWC4P4TQ,51st Deli,1314 51st Ave N,Nashville,TN,37209,36.1619072,-86.84887,4.5,164,1,1,1,1,1,1,0,1,0,1,1,0,4,0
Ahwed4jRpXhmSCkcLL7FOw,Moe's Southwest Grill,101 Creekside Xing,Brentwood,TN,37027,36.0371204933,-86.7983664088,3.0,48,1,1,1,1,1,1,0,1,1,1,1,0,4,0
OAkcBAwedonnwT3Wf_DqTw,Parks Place Pub,"8594 E 116th, Ste 70",Fishers,IN,46038,39.9571476,-86.0180566,4.0,52,0,1,0,2,1,1,0,0,0,1,0,0,1,0
NcO-pWiZmNM5zBg8H9zB6Q,La Tavola Ristorante Italiano,114 Front St,Smyrna,TN,37167,35.9811081,-86.5193323,4.0,191,1,1,1,2,1,1,1,1,1,1,0,0,4,0
d-37SrSuOew0uqwuOM_w7w,Thai Fusion,9250 W 10th St,Indianapolis,IN,46234,39.77881,-86.325932,4.0,58,1,0,1,1,1,1,0,1,1,1,0,0,1,0
yH0ON2BtV52JXxWdZy7Psg,Flat Tire Diner,4700 Old Hickory Blvd,Old Hickory,TN,37138,36.202711,-86.621012,4.5,71,0,0,1,2,1,1,0,1,0,0,1,0,1,0
tiEkH6TbOQMZHRo46rmdTA,Denim byob,116 King's Hwy E,Haddonfield,NJ,08033,39.896842,-75.033414,4.5,149,1,1,1,2,1,0,1,1,1,1,1,0,4,0
OyHbS1sJ4CguExlWa-XWDg,Red Lobster,3020 N Causeway Blvd,Metairie,LA,70002,30.0074264,-90.155475,2.5,122,1,0,1,2,1,1,1,1,1,1,1,0,2,0
LwVhbEy_SHse2G_P2JXMyg,Mo' Bettahs Hawaiian Style Food,3223 E Louise Dr,Meridian,ID,83642,43.6028922,-116.3539042,4.0,109,1,0,1,1,0,0,0,1,0,0,1,0,1,0
o6jfwLREaGy1mwAEybjOkg,Stefano Greek Italian Restaurant,8600 N 56th St,Tampa,FL,33617,28.0280199569,-82.393829897,4.0,106,0,0,1,2,1,1,1,1,1,1,1,0,4,0
K8b2MQ5Az59-nzvqUfjJEQ,The Farm and Fisherman,1120 Pine St,Philadelphia,PA,19107,39.944935,-75.1606759,4.0,234,0,0,1,3,1,0,1,0,0,0,0,0,4,0
D_sIoGDRaLJv0DAIc46MMA,Ruby Slipper Cafe,2700 Metairie Rd,Metairie,LA,70001,29.9793408,-90.1520954,4.5,347,1,1,1,2,1,1,0,1,0,1,1,1,4,0
UKA2eeAZmO4ACB2J0kFISw,Panda Express,5140 Kietzke Lane Suite E,Reno,NV,89509,39.4749646908,-119.7922227358,2.5,86,1,1,1,1,1,1,0,1,1,1,0,0,4,0
zBHAoHU-SD7wECkKpTGImg,First Watch,3691 Tampa Rd,Oldsmar,FL,34677,28.0449208,-82.68053,4.0,93,1,1,1,2,1,0,1,1,1,1,0,0,4,0
kgywEv9dQHcvEAu741y3RQ,New Bamboo Garden,421 Hurffville-Crosskeys Rd,Sewell,NJ,08080,39.7338119,-75.0638068,4.0,34,1,0,1,1,0,1,0,0,0,0,0,0,1,0
gu9H6XoryCn07BfPsSdeSw,The Sweet Taco,781 W Sproul Rd,Springfield,PA,19064,39.9357331,-75.3516435,3.0,153,0,0,1,1,1,1,1,1,1,1,0,1,2,0
hXBeTdtREKEMT2FMmzRPhQ,Steak & Pasta House,38 E 2nd St,Reno,NV,89501,39.5267893,-119.8125674,4.0,59,0,0,1,2,1,1,1,1,0,1,0,0,1,0
LktIfbmd3k0kDiWibGw7DQ,Stacked Pickle - 96th Street,4705 E 96th St,Indianapolis,IN,46240,39.9254897722,-86.0890453372,3.0,67,1,1,1,2,1,1,0,1,1,1,1,1,3,0
bQKqeYwaHNal7JFAXzCMFg,Super Gyros,766 Carlyle Ave,Belleville,IL,62221,38.5170210269,-89.9513851956,4.5,79,1,0,1,1,1,1,0,1,1,1,0,0,2,0
JeoIxdzt5E3QXT1KHXR2oA,JB'S Island Cafe,432 Poinsettia Ave,Clearwater,FL,33767,27.9796975,-82.8266376,4.0,37,0,1,1,1,1,1,0,1,1,1,0,0,3,0
Fbq_tc6W5uNmQNrInXpd5w,6 North Cafe,14438 Clayton Rd,Ballwin,MO,63011,38.6204937228,-90.5252278585,4.0,91,0,1,1,1,1,1,0,1,1,1,1,0,4,0
wDwK7Im_rXO5nVeQn4lc3g,Hot Stuff Spicy Chicken and Fish,"1309 Bell Rd, Ste 218",Antioch,TN,37013,36.047285,-86.676227,3.5,129,1,0,1,1,1,1,0,1,0,1,0,0,4,0
UUOOjXAyk7dBpwTtKCnwyg,Casita Taqueria,2706 4th St N,Saint Petersburg,FL,33704,27.796819,-82.638827,4.5,103,1,1,1,1,1,1,0,1,0,1,0,0,4,0
Xsvi9wYhD7u5XrK2EKDd8w,Five Star Pizza,10926 N 56th St,Tampa,FL,33617,28.0481913,-82.3942796,4.0,95,1,1,1,2,1,1,0,1,1,1,0,0,4,0
z3MQ4dmYICABaayF66NV3A,Quiznos,"2905 Northtowne Ln, Ste 120",Reno,NV,89512,39.5571203,-119.7826597,3.5,32,1,1,1,1,1,1,1,1,0,0,1,0,4,0
51pgAUQ6aIdZEfSXiG39VQ,Prodigy Burger & Bar,"8923 S Meridian St, Ste A1",Indianapolis,IN,46217,39.6361025,-86.1576094,3.0,48,1,1,0,1,0,0,0,1,0,0,0,0,1,0
GZdflq6wvOXyOtSFThqNmA,Corner Cafe,321 10th Ave,Royersford,PA,19468,40.196183,-75.53241,2.5,30,0,1,1,1,1,1,0,1,1,1,0,0,4,0
laV1qL3qhGFOfkPbHo3SVQ,Joe Boccardi's Ristorante,958 Brookwood Ctr,Fenton,MO,63026,38.5223473,-90.4727923,3.5,40,1,0,1,3,1,1,1,1,0,1,1,0,2,0
qq4Zc5y76vfCxQQy4CLfrA,The Casino Grill,38 E 2nd St,Reno,NV,89501,39.5267893,-119.8125674,4.0,38,0,1,1,1,1,1,0,1,0,0,0,0,1,0
2rQFgavS-942RapZTBSBTw,Gullifty's Restaurant,1149 W Lancaster Ave,Bryn Mawr,PA,19010,40.025857,-75.325628,3.0,270,1,1,1,2,1,1,1,1,1,1,1,1,4,0
s4VzQaUCrgwPuViQYOqC2w,Ranch House Restaurant,7706 W Hillsborough Ave,Tampa,FL,33615,27.9962535,-82.5670403,3.5,39,1,0,1,1,1,1,1,1,1,1,1,0,4,0
xkYOPbA8AL4jcQIN3xveoQ,The Big Cheezy,3232 Williams Blvd,Kenner,LA,70065,30.0154233,-90.2392351,4.0,154,1,0,1,1,1,1,0,1,1,1,1,0,2,0
eaJCpC6IhYphj7bwCDHTwQ,Three Brothers Coffee,2813 W End Ave,Nashville,TN,37203,36.1448084,-86.8122664,4.5,249,1,0,1,1,1,1,0,1,1,1,1,0,2,0
lDodrtH6kNgSCYpxr_E3-A,McAlister's Deli,"2701 Airline Hwy, Ste T",Metairie,LA,70001,29.9754518653,-90.1512057111,2.5,70,1,1,1,2,1,1,0,1,1,1,1,0,2,0
98mYebjHN_VXZapVm8Nmqg,SWEGS Kitchen - Mid-City,231 N Carrollton Ave,New Orleans,LA,70119,29.9760651,-90.0996259,4.0,67,1,0,1,1,1,1,0,1,1,1,1,0,4,0
_Co6_3dVnerzFLSe2s4W9Q,Bobby Chez Crabcakes,1990 Marlton Pike E,Cherry Hill,NJ,08003,39.8996609,-74.9532997,3.5,30,1,1,1,1,0,1,0,1,0,0,0,0,1,0
SKW1zA4nY_SPKkQPmXNHoA,Toppers Pizza,12545 N Meridian St,Carmel,IN,46032,39.9708157,-86.1557213,3.5,70,1,0,1,2,1,1,0,1,0,1,0,0,4,0
K7rsFcHcO_LYrgWvTAik2w,Shep's Delicatessen,1000 Main St,Nashville,TN,37206,36.1780018,-86.7508693,3.5,134,1,1,1,1,1,0,0,1,1,0,1,1,1,0
ZpXZgnBrNodHH8pKpOK_Kg,Jesse's Steak and Seafood,524 W Brandon Blvd,Brandon,FL,33511,27.9381358,-82.2920736,4.0,267,0,0,1,2,1,1,0,1,0,1,0,1,4,0
PxEiXqMAzzvp8GFlb5EoLg,Grain Exchange,7152 Germantown Ave,Philadelphia,PA,19119,40.059508,-75.190838,3.5,239,1,1,1,2,1,1,0,1,0,1,1,1,2,0
5pCDh3Tq3WzQau79hfJbsA,Brooklyn Pizza & Cafe,2428 Nolensville Pike,Nashville,TN,37211,36.1193788,-86.748865,3.5,69,1,1,1,3,0,1,0,1,1,1,1,0,1,0
rc4nXqvuHmqM5JDnKxS5LA,Key West Shrimp Company,"7217 Gulf Blvd, Ste 13",St Pete Beach,FL,33706,27.740791,-82.750265,4.0,32,1,0,1,2,0,0,0,1,1,0,1,0,1,0
hkh5iyDeGLNhu-JUQFRE1Q,Royal Sonesta New Orleans,300 Bourbon St,New Orleans,LA,70130,29.9557609,-90.0678872,3.5,492,0,1,1,3,1,0,1,0,1,1,0,0,4,0
89COhCW-cAD5-fTXPfXYTw,Strange Donuts,2709 Sutton Blvd,Maplewood,MO,63143,38.612197,-90.320003,3.5,352,1,0,1,1,1,1,0,1,0,0,0,0,4,0
tUDZnYQe7aD2VU3Syia_RQ,The Nations Bar & Grill,705 51st Ave N,Nashville,TN,37209,36.1556569,-86.849056,3.5,45,0,1,1,2,1,0,0,1,1,1,1,1,4,0
j8NhrBzy1op0BfVGdSOiXQ,The Creperie Cafe,"7709 W Overland Rd, Ste 130",Boise,ID,83709,43.588937,-116.278166,3.5,131,1,1,1,1,1,1,0,1,1,1,1,0,4,0
UCMSWPqzXjd7QHq7v8PJjQ,Prep & Pastry,2660 N Campbell Ave,Tucson,AZ,85719,32.25552801,-110.94349236,4.5,2126,1,1,1,2,1,1,0,1,1,1,1,0,4,0
3Z59UMun90xRiSU1XX8rhQ,Asian Taste Inn,2160 County Line Rd,Huntingdon Valley,PA,19006,40.170447,-75.073694,4.0,61,0,0,1,2,1,1,1,1,0,1,0,0,1,0
Lfib0jjHweCly1-FLM_og,Sidelines Grill,"232 Hutton Pl, Ste 101",Ashland City,TN,37015,36.250434,-87.035458,3.0,39,0,1,1,2,1,1,0,1,0,1,0,0,4,0
kpK6SmxIiNoGPNhlEGiL4w,Trattoria Marcella,3600 Watson Rd,Saint Louis,MO,63109,38.597361,-90.300388,4.5,383,0,1,1,2,1,1,1,1,0,1,0,1,4,0
1_hDCN3iioFR3XnUr32ZtA,Dooners,21 3rd St N,Saint Petersburg,FL,33701,27.7718011011,-82.6369077739,3.5,109,1,1,1,1,1,1,0,1,1,1,0,0,4,0
mY02hIpeZSVCaWObvvyECA,The Good Pie,3137 Olive St,Saint Louis,MO,63103,38.6357301,-90.2249506,4.0,126,0,1,1,2,1,1,0,1,0,1,0,0,4,0
YKpZ2Ml0NZoYZ5eb3r_Cdg,Valentine's Restaurant,205 S State St,Freeburg,IL,62243,38.4242058,-89.9087975,4.0,30,0,0,1,2,1,1,1,1,1,1,0,0,4,0
sy85YVw1d56ABqhXF-Y14g,Godavari,5012 Thoroughbred Ln,Brentwood,TN,37027,36.0362772,-86.7892595,3.5,32,1,0,1,2,1,1,0,1,1,1,0,0,1,0
OIES_WhdNux3PmvSuPM-8Q,Toki Sushi,14313 N Dale Mabry Hwy,Tampa,FL,33618,28.0774196,-82.5059947,4.0,106,0,0,1,2,1,1,1,1,0,1,0,0,1,0
kAaeJxXCtLNAo3DosoXXA,The Burg Diner,2950 49th St N,Saint Petersburg,FL,33710,27.7988788,-82.7003544,4.0,109,0,0,1,1,1,1,0,1,1,1,0,0,2,0
J1pqZt0WWCL8cOt0eixBEw,Alvarez  Authentic Latin Food,7715 Land O' Lakes Blvd,Land O' Lakes,FL,34638,28.2699738723,-82.4808749557,4.5,51,0,1,1,1,1,1,0,1,1,1,1,0,2,0
_zU8uJthn3o5swP0LmfuqQ,Dots Diner - Williams Blvd.,2239 Williams Blvd,Kenner,LA,70062,29.997378,-90.241623,4.5,234,1,0,1,1,1,1,0,1,1,1,0,0,4,0
w0zKpH49tW6Y-b6ZJzKMFw,Chuck's Alibi,7301 Oxford Ave,Philadelphia,PA,19111,40.061417,-75.0833451,2.0,76,1,0,1,2,1,0,1,1,1,1,0,0,4,0
bRhnVTfuxDchyFguyDzuDQ,Queen Sushi,281 N Keswick Ave,Glenside,PA,19038,40.1061425402,-75.1469280362,3.5,76,1,0,1,2,1,1,0,1,0,1,0,0,4,0
tP9Sn0KzL2GzImUGchXYMQ,Ishtar Market and Restaurant,4516 W Overland Rd,Boise,ID,83705,43.5903599,-116.2375654,4.5,80,0,0,1,2,1,1,0,1,0,0,0,0,1,0
zQ4yPiqoyMtoohGpEip7zw,The Growler Guys,"7530 Longley Ln, Ste 106",Reno,NV,89511,39.4562814,-119.7774657,4.0,75,1,1,1,2,1,1,0,1,1,1,1,1,4,0
ZYlDRSuhC-97FyqsPg1KCA,Pacos Tacos Metairie,4726 Veterans Memorial Blvd,Metairie,LA,70006,30.004915,-90.188874,4.5,160,1,1,1,1,1,0,0,1,1,1,1,0,1,0
_ReMedGR8eDM5AgdRK0jCw,Shorty's Breakfast & Gourmet Deli,"1261 Gulf Blvd, Ste 125",Clearwater,FL,33767,27.9519833,-82.829696,4.5,68,0,1,1,1,1,1,1,1,1,1,1,0,1,0
v5T1Q21TT1_S_aY_G8Mf-g,Mr. Baja Fish,405 E Wetmore Rd,Tucson,AZ,85705,32.2873778,-110.9657056,4.0,69,1,0,1,1,0,1,0,1,0,1,0,0,1,0
w0lcP2ngFaUpBGi5yzlYDw,Yah Mon,"301 W Platt St, Unit C",Tampa,FL,33606,27.9422145,-82.4629632,4.5,697,1,1,1,2,1,1,1,1,1,1,1,0,2,0
GgcvRnt5_z3NEC0D6vNncQ,Cafe Buenos Aires,1316 State St,Santa Barbara,CA,93101,34.424829,-119.706032,3.5,56,0,1,1,2,1,0,1,0,0,1,0,1,4,0
Y70T1eClNnw_PlBkr1IHqg,Panda Express,1606 W Valencia Rd,Tucson,AZ,85746,32.1342676,-110.9998502,1.5,44,1,1,1,1,0,1,0,1,1,1,0,0,1,0
N-CBZKO37y_WSUN7ZMNGkg,Taqueria El Pastorcito,4427 Hollister Ave,Santa Barbara,CA,93110,34.4397058,-119.7708382,4.0,66,1,0,1,1,1,1,0,1,1,1,0,0,4,0
TghRoAMx43V-9l7mH-SENg,Crabby Bills Clearwater Beach,37 Causeway Blvd,Clearwater Beach,FL,33767,27.9770768,-82.8277495,3.5,408,0,1,1,2,1,1,0,1,0,1,0,1,2,0
eqNutOMnPqKa9QDAY6KfEw,J'aime French Bakery,212 S 12th St,Philadelphia,PA,19107,39.948081,-75.1608093,4.5,310,1,1,1,2,0,1,0,1,1,0,0,0,4,0
P7oAQxDu8rapFn8QY0nmyA,LesbiVeggies,112 W Merchant St,Audubon ,NJ,08106,39.893852132,-75.0719857,4.5,52,0,0,0,1,0,0,0,1,1,0,0,0,1,0
Gg_9lJOk0I8HDOw-Vj8P5Q,Café Zupas,129 Broadway St,Boise,ID,83702,43.6105374506,-116.1941686466,3.0,75,1,0,1,1,1,1,0,1,1,1,0,0,3,0
dwoqTu3q0D_T2UfT7cgHqw,Pia Urban Cafe & Market,2834 E Washington St,Indianapolis,IN,46201,39.7687205,-86.1153179,5.0,40,0,1,1,1,1,1,0,1,1,1,1,0,1,0
UGebrYgNZrMzbGbcI01JWA,Hiccups & Churroholic,13030 N Dale Mabry Hwy,Tampa,FL,33618,28.0645829885,-82.5057124,4.5,108,1,1,0,2,0,0,0,1,0,0,0,0,1,0
L3u4I6wHtwMQJ-ZtvfrkkQ,McDonald's,3640 W Tangerine Rd,Marana,AZ,85742,32.424583,-111.043025,1.5,36,1,1,0,1,0,0,0,1,1,1,0,0,4,0
K51bVqlGcpTMDK3-SDkBeQ,Panera Bread,620 Royal Pkwy,Nashville,TN,37214,36.1457641,-86.6682195,2.5,80,1,1,1,2,1,1,0,1,1,1,0,0,4,0
pym7c6ZFEtmoH16xN2ApBg,Katie's Restaurant & Bar,3701 Iberville St,New Orleans,LA,70119,29.9730943,-90.0959144,4.5,1289,1,1,1,2,1,1,1,1,0,1,1,1,4,0
EjFp57Nd4bVgb5GNn-XnuA,Tokyo,7911 W Hillsborough Ave,Tampa,FL,33615,27.9969683,-82.5701668,3.5,155,1,1,1,1,1,1,0,1,1,1,1,0,1,0
9dGzGbNKLMP0_wOqI5GffQ,Jasmine Thai,1947 Wlumsden Rd,Brandon,FL,33511,27.9213164796,-82.3168221354,4.0,195,1,0,1,2,1,1,1,1,0,1,0,0,1,0
AmnnsJq4Pz1jJUFzHwtsOA,Chipotle Mexican Grill,"1560 E 86th St, Ste C",Indianapolis,IN,46240,39.912878,-86.134275,3.0,65,1,1,1,1,1,1,0,1,1,1,0,0,4,0
CPFKi2lZJazP6IdtCdDDyg,Coffeebar,682 Mt Rose St,Reno,NV,89509,39.5090563,-119.8149981,4.5,676,1,1,1,1,1,1,0,1,1,1,1,1,2,0
5AOkxsg6UJQ_CoJTMBDUmQ,Ralph's on the Park,900 City Park Ave,New Orleans,LA,70119,29.983468,-90.098151,4.0,299,0,1,1,3,1,1,1,1,1,1,0,1,4,0
CS_GzUYlEPa6QHTRY224wQ,LongHorn Steakhouse,690 S Trooper Rd,Norristown,PA,19403,40.1274771937,-75.4040751479,3.5,104,0,0,1,2,1,1,0,1,1,1,0,0,4,0
Jvmj49D0GGnvCpjN0LXqEg,Angie's Restaurant,725 Cleveland St,Clearwater,FL,33755,27.9654261,-82.796093,4.0,55,0,0,1,1,1,1,0,1,1,0,0,0,2,0
a7_KZUJknqRA4DHQ3j9ofA,Slowdown Grillpub,4700 Pennell Rd,Aston,PA,19014,39.8594186,-75.4271676,3.0,60,1,0,1,2,1,1,0,1,1,1,0,1,4,0
7enJKZ9W2Vkq62ryK28taQ,Brenda's On the Causeway,314 Causeway Blvd,Dunedin,FL,34698,28.0512415718,-82.7872824669,4.0,62,0,0,1,1,1,1,0,1,1,0,0,0,4,0
gABEjWGwhojrub_tXqE2uw,Global Quesadilla Company,189 Lamp & Lantern Village,Chesterfield,MO,63017,38.6249339683,-90.516998,3.5,146,1,0,1,1,1,1,0,1,0,1,0,0,4,0
7lwe7n-Yc-V9E_HfLAeylg,Pub & Kitchen,1946 Lombard St,Philadelphia,PA,19146,39.9456566,-75.1747733,3.5,615,1,1,1,2,1,0,1,1,0,1,0,1,4,0
Y2jDVmMpRzQRg6HkNvQc8g,Smyrna Cafe,1666 Lee Victory Pkwy,Smyrna,TN,37167,35.9416454189,-86.5283457257,4.0,184,0,0,1,2,1,1,1,1,1,1,1,0,1,0
lsGZzXIJbjrWtcFGLAW5sw,AM@FM,900 Rosa L Parks Blvd,Nashville,TN,37243,36.169304,-86.788028,4.0,41,0,1,1,2,1,1,0,1,0,0,0,0,4,0
Bt7NBqA31uOI4H_hvasLLg,HORN'S EATERY,1940 Dauphine St,New Orleans,LA,70116,29.9653626508,-90.059115658,4.0,597,0,1,1,2,1,1,0,1,1,0,1,0,4,0
UNRqCfwvvcU7jdbvExbhDg,The Grog Grill,863 W Lancaster Ave,Bryn Mawr,PA,19010,40.0226217,-75.3202699,3.5,125,1,0,1,2,1,1,1,1,1,1,1,0,4,0
5m3ND7lNNd6zo-bNQGoXhQ,Three 12 Sport Bar and Lounge,312 Market St,Philadelphia,PA,19106,39.9499452,-75.146352,2.5,33,1,1,1,2,1,0,1,1,1,1,1,1,4,0
Ims_IgNKoDts2FdFNROQJQ,Los Machetes Authentic Mexican Restaurant,856 Chester Pike,Prospect Park,PA,19076,39.8812654,-75.3080321,4.0,55,1,0,0,1,0,1,1,1,0,1,0,0,1,0
c6GTImF01z981_BNJIye2g,Chef JJ's Back Yard,1040 Broad Ripple Ave,Indianapolis,IN,46220,39.870073,-86.139953,4.5,41,0,1,1,3,1,0,1,0,1,1,0,0,4,0
0z-unL2UdJn40PYiou2bnQ,Manny's Sicilia Pizza,17 W Broad St,Palmyra,NJ,08065,40.0039604,-75.0225524,3.5,37,1,0,1,2,1,1,0,1,1,1,0,0,4,0
Tl24lMv2aCuLs4u45NquJQ,Lamberti's Tutti Toscani,1491 Brace Rd,Cherry Hill,NJ,08034,39.8892184,-75.0168699,4.5,163,1,1,1,2,1,1,0,1,0,1,0,0,4,0
9XkgYvXhYibe85V6mNE_TQ,Winners Bar and Grill Nashville,1913 Division St,Nashville,TN,37203,36.1495917,-86.7968607,3.0,102,1,1,1,2,1,0,1,1,1,1,1,1,4,0
DW4ST1K1QWMangu5pUROSQ,Pop Inn,4 N Main St,Chalfont,PA,18914,40.285725,-75.208165,3.5,45,0,1,0,1,0,0,0,0,0,0,0,0,1,0
oBhJuukGRqPVvYBfTkhuZA,Square 1682,121 S 17th St,Philadelphia,PA,19103,39.9508011,-75.1686108,3.5,385,1,1,1,2,1,0,1,1,1,1,1,1,4,0
WLLmkBjtN8mr2vWTU8aaCQ,sweetgreen,"350 Mall Blvd, Ste 3035",King Of Prussia,PA,19406,40.0888477047,-75.3892213351,3.5,91,1,0,1,2,1,1,0,1,1,1,0,0,4,0
C1QkJ4s_p3hMTrvOgM7ssA,The Enerjuicer,3309 W Kennedy Blvd,Tampa,FL,33629,27.9451157,-82.4978944,3.5,122,1,1,1,2,1,1,0,1,1,0,1,0,1,0
kgeiJzWSiXPnf-3wx7LHIQ,Panera Bread,3421 N Eagle Rd,Meridian,ID,83646,43.6361060294,-116.3547924344,3.0,81,1,1,1,1,1,1,0,1,1,1,0,0,4,0
eL673KqwAGpJQ4z-MAaZ7Q,Kokoro Ramen,1473 Brace Rd,Cherry Hill,NJ,08034,39.8893026822,-75.0162957925,4.5,62,1,0,1,1,1,0,0,1,0,0,1,0,1,0
04UD14gamNjLY0IDYVhHJg,Dmitri's,795 S 3rd St,Philadelphia,PA,19147,39.9380132,-75.1481307,4.0,273,0,0,0,2,1,0,0,1,0,0,0,0,4,0
7sKfrJmjG6unAQeWdQUe2w,Franzone's Pizzeria & Restaurant,114 Levering St,Philadelphia,PA,19127,40.026465,-75.2244958,3.5,110,1,1,1,1,1,1,0,1,1,1,1,0,1,0
6kAXOzE7fqaBZINQV_-_mg,Kien Giang,5845 Charlotte Pike,Nashville,TN,37209,36.148333,-86.862353,3.5,326,1,0,1,1,1,1,0,1,0,1,1,0,4,0
WO5nr-4sjVs506BdCLL0aA,Kuchi Sushi & Hibachi,9206 Anderson Rd,Tampa,FL,33634,28.030876,-82.541377,4.0,319,1,0,1,2,1,1,1,1,1,1,0,0,4,0
lTVHJAvtFQbQb6cPstEXyA,China Bowl & State Street Cafe,440 E Ortega St,Santa Barbara,CA,93101,34.4235663,-119.6925452,2.0,61,1,1,1,2,1,1,1,1,1,1,0,0,4,0
JYDd5sgn18DqDnTnq_tBRQ,Las Trojes Mexican Restaurant,5272 Sparks Blvd,Sparks,NV,89436,39.5885582,-119.7254333,3.0,106,0,1,1,2,1,1,1,1,1,1,1,1,4,0
14ZGwnDyydXdSBsLXpSUrA,Vientiane Café,4728 Baltimore Ave,Philadelphia,PA,19143,39.9483087,-75.2178905,4.0,304,1,1,0,2,1,1,1,1,1,1,0,0,4,0
jlgi2sLx5i6_t4mcODJW7A,Redemption,3835 Iberville St,New Orleans,LA,70119,29.9741719,-90.0974353,3.0,63,0,1,1,3,1,0,1,0,1,1,0,1,4,0
k4gi0CDSas1glukpWHtoFg,The Flying Bridge,5500 Gulf Blvd,St. Pete Beach,FL,33706,27.730499285,-82.7449756747,3.5,62,0,1,1,2,1,1,0,1,1,1,0,1,4,0
cljHYek6vHtqUgUsnJBqmA,Pomme Cafe & Wine Bar,44 N Central Ave,Saint Louis,MO,63105,38.6514594,-90.3378156,3.5,57,0,1,1,2,1,0,0,1,1,0,0,0,4,0
QExWORi8kxwQGdXlFXRc-Q,Frank's Diner,"16103 US 19, 15925 US 19",Hudson,FL,34667,28.391744,-82.667798,3.0,30,0,0,1,1,1,1,0,1,1,1,0,0,1,0
f31Cl39cl2T-CwwqZoMGkQ,Ray's Subs,1540 Pennington Rd,Trenton,NJ,08618,40.2519978278,-74.7763186544,3.5,39,1,0,1,1,1,1,0,1,0,1,0,0,4,0
aq26RY75PlTNsviW6wUC9A,Hooters,7280 E Broadway Blvd,Tucson,AZ,85710,32.2205997635,-110.8379714749,3.5,109,1,1,1,2,1,1,0,1,1,1,0,1,2,0
VenhDgh9fRrh9c0Xq0LacQ,66 Q-pot,6851 66th St N,Pinellas Park,FL,33781,27.8344865813,-82.7278812626,4.0,113,0,0,1,2,1,1,1,0,1,1,1,0,1,0
zsvmEbkd-K9K2DAAKqiEQ,Salty's Island Bar & Grille,437 S Gulfview Blvd,Clearwater Beach,FL,33767,27.969764,-82.829336,4.0,599,1,1,1,2,1,1,1,1,1,1,1,1,2,0
hn3Rg2JrhQoDJBEhrpuwWg,Granite City Food & Brewery,1864 West McEwen Dr,Franklin,TN,37067,35.933616,-86.821486,3.5,356,1,1,1,2,1,1,1,1,1,1,0,1,4,0
71q2UD1A7KL2q4AA8mPobQ,Urban Eats,3301 Meramec St,Saint Louis,MO,63118,38.5808008,-90.2410679,4.0,88,1,1,1,1,1,1,1,1,1,1,0,0,4,0
7R_LxvRPu3qMc8xMhP0POw,Mo's a Place For Steaks,15 E Maryland St,Indianapolis,IN,46204,39.7654422471,-86.1573568352,4.5,42,0,0,1,4,1,0,1,1,1,1,1,0,4,0
g4KzJc8y7BhW66ieNIwJEA,The Old Spaghetti Factory,160 Second Ave N,Nashville,TN,37201,36.1639095897,-86.7758031111,3.0,288,1,0,1,2,1,1,1,1,0,1,0,0,4,0
YgMZm_alGFUeQO4hz9X9VA,Earl's New American,2400 Street Rd,New Hope,PA,18938,40.3475793,-75.0298548,3.5,135,0,1,1,2,1,1,1,1,1,1,1,1,4,0
_4VrDSmqabnuqwaQlOI6-w,IHOP,5 N Hwy 67 St,Florissant,MO,63031,38.79529,-90.34097,2.5,34,1,0,1,1,1,1,0,1,1,1,0,0,3,0
m1EGAIfFEN9nG2_bJqnAcQ,Sushi Minato,5085 S McCarran Blvd,Reno,NV,89502,39.4770062,-119.7825078,4.0,231,0,0,1,2,1,1,1,1,1,1,0,0,4,0
5XXFFeHDa-lb-OcXGDKXpg,Bartaco,"160 N Gulph Rd, Ste C1100",King of Prussia,PA,19406,40.0883652258,-75.3884107669,4.5,313,1,1,1,2,1,1,0,1,1,1,1,1,4,0
4ib9kGHlwqWPalWjh-dZhQ,Yama-Taiyo Japanese Cuisine & Sushi Bar,660 Alderman Rd,Palm Harbor,FL,34683,28.09319,-82.771565,4.0,49,1,0,1,2,1,1,1,1,0,1,0,0,1,0
5R6YO6K9PkthkTbXqV9slQ,Sakura Japanese Restaurant,4713 Kirkwood Hwy,Wilmington,DE,19808,39.7229310921,-75.6620611,4.0,86,1,0,1,2,0,1,0,1,0,1,0,0,4,0
TRXiliBZ2O2_BKyKQ32HA,Gyro Shack,5602 W State St,Boise,ID,83703,43.6562033682,-116.2585391,4.0,67,1,1,1,1,1,1,0,1,0,0,1,0,2,0
wn1rS1Ga9xZ1BIMffnJW5A,Applebee's Grill + Bar,455 Berlin - Cross Keys Rd,Sicklerville,NJ,08081,39.748982,-74.990204,2.5,39,1,0,1,2,1,1,0,1,1,1,0,1,3,0
rLSnt_I-JBH6f1kQ2j0uFg,Aston Pizza Company,600 Convent Rd,Aston,PA,19014,39.8723666123,-75.444536709,3.5,34,1,1,1,1,1,1,0,1,1,1,0,0,4,0
H3p3b8nbB3OtIfQyQGKDkg,Eet Gud Bakery,2113 Hamilton Ave,Trenton,NJ,08619,40.228034,-74.709329,4.5,78,1,0,1,1,0,1,0,1,1,0,1,0,4,0
rL68WmPRYvmSjRaQUoKwkQ,Social Gastropub,2 157 Center,Edwardsville,IL,62025,38.7848922,-89.97915449999999,3.5,131,0,1,1,2,1,0,1,1,1,1,0,1,2,0
AY1SyySRyTnBwBdf7qfGxQ,Citi Market place,1318 Walnut St,Philadelphia,PA,19107,39.9489105,-75.1630155,4.5,86,0,0,1,2,1,1,0,1,0,0,0,0,1,0
9XpU6r6ATXSWYfbU7kibaQ,Passero's Coffee Roasters,1601 John F Kennedy Blvd,Philadelphia,PA,19103,39.9542012,-75.1674658,4.5,91,0,0,1,1,1,0,0,1,1,0,1,0,3,0
8QJTzIaR5FceGds8HBSIig,Barrio Brewing,800 E 16th St,Tucson,AZ,85719,32.214412,-110.9595118,4.0,611,1,1,1,2,1,0,0,1,1,1,1,1,4,0
Ey0t4U6yqtxCeMaGPf7GcA,Brummis - the German Taste,3130 State St,Santa Barbara,CA,93105,34.440696,-119.732304,4.5,111,0,0,1,2,1,1,1,1,0,1,0,0,4,0
cz0sBSp8G2R2dqE6cccbuw,Wit or Witout Cheesesteaks,7352 Frankford Ave,Philadelphia,PA,19136,40.0378039,-75.0387664,2.5,37,0,0,1,1,1,1,0,1,0,1,0,0,4,0
UCCc31J4N8Y57RuzmInjyw,Chipotle Mexican Grill,350 S Perry Rd,Plainfield,IN,46168,39.713921,-86.355953,3.0,35,1,1,1,1,1,1,0,1,0,1,0,0,1,0
g-0-_hPz-yr_f4gBFbX2Ow,Kim's Cuban Sandwich Shop,11911 E Martin Luther King Blvd,Seffner,FL,33584,27.981183,-82.29767,4.0,39,1,1,1,1,1,1,0,1,1,0,1,0,4,0
ppV8AwESFjlG5FSRXdvtyg,LouVino,"530 Massachusetts Ave, Ste 140",Indianapolis,IN,46204,39.7748769,-86.1499074,4.5,236,1,1,1,2,1,0,1,1,1,1,0,1,1,0
ju4YP8SLdR_BmWr_-Xh83Q,Phamous Cafe,"7127 Hollister Ave, Ste 25",Goleta,CA,93117,34.428242,-119.876408,4.0,220,0,1,1,1,1,1,0,1,1,1,1,0,2,0
gEJ3a8-m6VB827e6GHromw,Sauce on the Side,4261 Manchester Ave,St. Louis,MO,63110,38.6271043879,-90.2566847205,4.5,232,1,1,1,2,1,1,0,1,1,1,1,1,4,0
i7LerGjkoxNPrlJ1oJpbXw,Red Lobster,"2275 E Lincoln Hwy, ACROSS FROM OXFORD VALLEY MALL",Langhorne,PA,19047,40.178285,-74.880187,3.0,77,1,0,1,2,1,1,1,1,1,1,1,0,3,0
Q4q9xFDxErreYTMrRshP_Q,Tijuana Flats,"2518 SR 580, Ste. A",Clearwater,FL,33761,28.01992,-82.732923,3.5,89,1,1,1,1,1,1,0,1,1,1,0,0,2,0
vOgQnvKbE4nMopFTjoL8Gg,Watermark Restaurant,507 12th Ave S,Nashville,TN,37203,36.1522693592,-86.7850399017,4.0,296,0,1,1,3,1,0,1,0,1,1,0,0,4,0
qdpdUjdkEUpzYDdce2yZng,Plaza Deli,140 S Hope Ave,Santa Barbara,CA,93105,34.436708,-119.748708,4.0,188,0,1,1,1,1,1,0,1,0,1,0,0,4,0
SKph9ovzvVSNzNFICgKb1Q,Union Burger,454 Mandalay Avenue,Clearwater,FL,33767,27.9800395966,-82.8279495239,2.5,42,0,1,1,2,1,1,0,1,1,1,0,0,4,0
Jr90GZ4uthyYp7407eyutQ,Sea Dog Cantina,2832 Beach Blvd S,Gulfport,FL,33707,27.7414706131,-82.70766,3.5,63,1,1,1,1,1,0,0,1,1,0,1,1,1,0
Ah7mpTWpdflSaCZHKHx8Dg,Yori's Church Street Bakery,15 N Church St,West Chester,PA,19380,39.9595399,-75.605789,4.5,86,1,1,1,1,0,1,0,1,0,0,0,0,4,0
EQ-TZ2eeD_E0BHuvoaeG5Q,Milktooth,534 Virginia Ave,Indianapolis,IN,46203,39.7591692208,-86.146494347,4.0,1379,1,1,1,2,1,1,0,1,1,1,0,0,2,0
e86IBzGCsrnhJbD_wELj7w,Herbie's Vintage 72,405 N Euclid Ave,Saint Louis,MO,63108,38.6488432,-90.2610791,3.5,141,1,0,1,3,1,0,1,1,1,1,0,1,4,0
oqP1oQEycpp4J6u5YebRoQ,American Social,"601 S Harbour Island Blvd, Ste 107",Tampa,FL,33602,27.9387071894,-82.4547521292,3.5,768,1,1,1,2,1,0,1,1,1,1,1,1,3,0
ld1b8y_PHH6Mn_e7T0u04g,Gachi Sushi and Noodle,"8500 Essington Ave, A West Terminal",Philadelphia,PA,19153,39.8946117,-75.2292952,4.0,95,0,0,1,2,1,0,0,1,1,0,0,0,1,0
C3Nc7EUqo64jRPWPn6vY9w,Chipotle Mexican Grill,818 Haddonfield Rd,Cherry Hill,NJ,08002,39.9274404658,-75.0318763641,2.5,73,1,1,1,1,1,1,0,1,1,1,0,0,4,0
0l0R_1x2RC8pEwP-OG6UxA,Roberts Meats And Catering,3435 S West Shore Blvd,TAMPA,FL,33629,27.911868,-82.52705,3.5,72,1,0,1,2,1,1,0,1,1,0,1,0,1,0
E0KwLVaQ-uKEjJl3j_VAGQ,Firehouse Subs,593 E Prater Way,Sparks,NV,89431,39.5415757,-119.7366051,4.0,87,1,0,1,1,1,0,0,1,0,0,0,0,4,0
VMJvz4jqc06fvlfvloDVZg,Lynne Lorraine's,"1100 Fatherland St, Ste 102",Nashville,TN,37206,36.1742465,-86.7501145,4.5,52,0,0,1,1,1,1,0,1,1,0,1,0,1,0
bjhCtlYHrkgA5Ku8l-rB3g,Our Daily Bread,2700 De La Vina St,Santa Barbara,CA,93105,34.435812,-119.725001,3.5,106,0,1,1,2,1,1,1,1,1,0,0,0,4,0
VnQBbu2oco57NB36kFhC2w,Café Cuba,3240 Lithia Pinecrest Rd,Valrico,FL,33596,27.895823,-82.246869,3.5,42,1,1,1,1,1,1,0,1,1,1,0,0,4,0
jnZYD2UCGziWwGsUxybkFw,Daredevil Hall,"2721 E 86th St, Ste 180",Indianapolis,IN,46240,39.9119165358,-86.1184757185,4.0,184,0,1,1,2,1,1,1,1,1,1,1,1,4,0
X-BZp1KMgGzKkf_92Y3fWw,Tiki Tolteca,"301 N Peters St, Fl 2",New Orleans,LA,70130,29.9534303,-90.065154,4.0,214,0,0,1,2,1,0,1,0,1,1,1,1,2,0
7YiLEuHuUONZrMPT0OxXUQ,McDonald's,432 N Virginia Ave,Reno,NV,89501,39.530632,-119.814276,1.5,89,1,1,1,1,1,1,0,1,1,1,0,0,3,0
iF_92LcvfJfrtwjHWhVb-Q,4th Street Pizza,3187 4th St N,St. Petersburg,FL,33704,27.801446,-82.6378064,3.0,67,1,0,1,2,1,1,0,1,0,1,1,0,2,0
tXfeVYKJq-bGPx1sjHOMHA,Village Inn,22601 State Rd 54,Land O' Lakes,FL,34639,28.1866210597,-82.4428262548,2.5,61,0,0,1,2,1,1,0,1,1,1,0,0,4,0
ejRuEF2j8_w5qQbwEQ8GfQ,Villagio Pizza Cafe,2533 Clearfield St,Philadelphia,PA,19134,39.9851818,-75.1067498,3.0,47,1,0,1,1,1,1,1,1,1,1,0,0,4,0
M2m_SM9GpIbct2a_hOGzag,Daily Dish Events & Catering,2205 Hillsboro Rd,Franklin,TN,37069,35.998157,-86.886735,4.0,47,1,1,1,2,1,1,1,1,1,1,0,1,1,0
MpkCQTOV6D3XGRPbtQPj5Q,Pho 36,"9655 E US Hwy 36, Ste C",Avon,IN,46123,39.7631044346,-86.3519488545,4.5,236,0,0,1,1,1,1,0,1,0,1,0,0,2,0
KcTLv46oThYuSujjb4EfEA,Asian Cafe,"550 Kimberton Rd, Ste 10",Phoenixville,PA,19460,40.1305452,-75.5505053,3.5,80,1,0,1,2,1,1,1,1,0,1,0,0,1,0
Aphp-EdFass877c-sWp5eg,Woodbury Station Cafe,101 Cooper St,Woodbury,NJ,08096,39.8363431,-75.1500005,3.5,145,1,1,1,2,1,1,1,1,1,1,0,0,4,0
cbkrO0zra1OiNGvtjw2igQ,Wok On the Wild Side,"901 Embarcadero Del Mar, Ste 100",Goleta,CA,93117,34.413105313,-119.8574306397,2.0,95,1,0,1,2,1,1,0,1,0,1,0,0,4,0
_E0WPHfJEYmwOUCAj-Jq1A,Western Village Inn and Casino,815 Nichols Blvd,Sparks,NV,89434,39.5344459,-119.7344361,3.5,266,0,0,1,2,1,0,1,0,1,1,0,0,1,0
B03ajYBGDkZrIDB9lRTwUg,Valentino's Ristorante,1808 Hayes St,Nashville,TN,37203,36.153864,-86.7976111,4.0,160,0,1,1,3,1,0,1,1,1,1,0,0,4,0
P3qii5-Hch2tDd1e59znXQ,Franci's Cafe,"4901 W Linebaugh Ave, Ste 7",Tampa,FL,33624,28.0408259,-82.5264812,4.5,34,0,0,1,1,1,1,0,1,1,1,0,0,2,0
N44roXfLNkBdpINQDjEFOQ,Carisilo's Mexican Restaurant,1978 Vandalia St,Collinsville,IL,62234,38.695337,-89.9666906,4.0,65,0,1,1,1,1,1,0,1,0,1,0,0,4,0
KBsLYznLfnJEY3RIBUZe0Q,Kei Sushi,5085 S McCarran Blvd,Reno,NV,89502,39.4785657157,-119.7867159918,4.0,357,0,0,1,2,1,1,1,1,1,1,1,0,2,0
yWUmFHfZEV6nnF2IFXn4nw,Prime 55 Restaurant & Lounge,6100 Delmar Blvd,St. Louis,MO,63112,38.6549453,-90.2962379,3.0,67,1,1,1,1,1,0,1,1,0,0,0,0,4,0
k3sED9tpGEOtzhGxvcxTrw,Izzo's Illegal Burrito,4316 Veterans Blvd,Metairie,LA,70006,30.0046134,-90.1804121,3.0,147,1,0,1,1,1,1,0,1,0,1,0,1,4,0
aI2w94F3TvIuPTcflKVCJQ,Honeydeux,1912 Magazine St,New Orleans,LA,70130,29.931227,-90.073987,3.5,88,0,1,0,1,1,1,0,1,0,1,0,0,1,0
MYMLQfzRv8x7aO-bv9vpFg,Five Guys,321 S 8th St,Boise,ID,83702,43.6139398936,-116.2053884805,2.5,36,1,1,1,1,1,1,0,1,0,1,0,0,4,0
encfXG_jrG1M6gX1IqrHrw,Ballyhoo Grill,7604 Ehrlich Rd,Tampa,FL,33625,28.07824,-82.569894,3.5,262,1,1,1,2,1,1,0,1,1,1,0,1,4,0
_rkjLrft2ZgHcLBLF9amXw,Uno Pizzeria & Grill,106 Black Rock Road,Oaks,PA,19456,40.1345642784,-75.4485799227,3.0,138,1,1,1,2,1,1,1,1,1,1,0,1,2,0
tCLAeZsjXFG9RumJ4Hn0Kw,Maru Global,255 S 10th St,Philadelphia,PA,19107,39.9467949,-75.1577025,3.5,72,1,0,1,1,1,1,1,1,0,1,0,0,4,0
i-tDq8zC7ZmSqSbg_7oddA,LA Smokehouse,"8300 Earhart Blvd, Ste 103",New Orleans,LA,70118,29.962067,-90.117703,4.0,79,1,1,1,2,1,1,0,1,1,1,1,0,2,0
LHSTtnW3YHCeUkRDGyJOyw,Fries Rebellion,1441 S West End Blvd,Quakertown,PA,18951,40.407537456200004,-75.3388251276,3.5,103,0,0,1,2,1,1,1,1,1,1,0,1,4,0
zTp2lpm3z5tVk62rA-pCdQ,Rooftop Garden,1105 Prospect St,Indianapolis,IN,46203,39.7521667,-86.1396658546,3.5,60,0,1,1,2,1,0,0,0,1,1,0,1,4,0
HKLFG2qKkd5X1IyfwYlYqQ,Chubbie's Fried Chicken,4850 General Meyer Ave,New Orleans,LA,70131,29.9320808,-90.0030653,4.0,70,0,0,1,1,1,1,0,1,0,0,0,0,4,0
y8R6_RZsBO-b__bJaQjuaw,Factory Donuts,2828 S Eagle Rd,Newtown,PA,18940,40.2340222488,-74.9426154439,4.0,34,1,0,1,1,0,0,0,1,1,0,1,0,1,0
gLaxSkjWzt25hybkaKwQcA,Slim Goodies Diner,3322 Magazine St,New Orleans,LA,70115,29.9230437,-90.0882019,3.5,520,1,1,1,2,1,1,1,1,1,1,1,0,4,0
ShMMSvD_xxf3qfy70T2MrA,Joe's Pizza,38 S Sproul Rd,Broomall,PA,19008,39.9807964312,-75.3618657847,4.0,30,0,0,1,1,1,1,0,1,0,1,0,0,4,0
6Vnoah8cca3KC4CdSu-eaA,Bubba's Deli,3249 Ivanhoe Ave,St. Louis,MO,63139,38.604407,-90.3041,4.5,46,1,1,1,1,1,0,0,1,1,0,1,0,1,0
jnge13lFtiLGXQEo5NwSYw,Sucre Table,4048 W Kennedy Blvd,Tampa,FL,33609,27.9444151,-82.5116072,4.5,67,1,0,1,1,0,0,0,1,0,0,1,0,1,0
YGdUUAqeRT5Z7fYkpevEyA,Porterhouse,600 S Rivershore Ln,Eagle,ID,83616,43.688867,-116.35483,4.5,65,1,1,1,2,1,1,0,1,1,0,1,0,2,0
5Ce3lZksYVkCbrihqylVHQ,Sushi Nara,64 N Harrison Rd,Tucson,AZ,85748,32.222552,-110.788132,4.5,159,0,0,1,2,1,1,1,1,1,1,1,0,1,0
fr2qDm_mY1afIGMvqsKUCg,George's Wings,3818 Morrell Ave,Philadelphia,PA,19114,40.0643044322,-74.9868814021,3.5,50,1,0,1,1,1,1,0,1,0,1,0,0,2,0
IZmCSGeXLCB-Y2UvJrvr-A,Zea Rotisserie and Grill,1525 St Charles Ave,New Orleans,LA,70130,29.9386502,-90.0761769,4.0,130,0,0,1,2,1,1,1,1,0,1,0,0,4,0
76xVA7wmqKLURF0tN82N5w,Bar Avalon,116 E Gay St,West Chester,PA,19380,39.9611607,-75.6033724,4.0,107,1,1,1,2,1,0,1,1,1,1,0,1,4,0
ut6fi2W2YaipNOqvi7e0jw,Upland Carmel Tap House,820 E 116th St,Carmel,IN,46032,39.9569253992,-86.142973568,4.0,244,1,1,1,2,1,1,1,1,1,1,0,0,4,0
Cx3G-kw4kYtlcig8yG7fWw,Burger King,9700 Pyramid Way,Sparks,NV,89441,39.6390681642,-119.7106055823,1.5,57,1,0,1,1,1,1,0,0,1,1,0,0,2,0
GOSVLhjUT6TnrPhkkmDOpw,Vineyards Cafe,847 N 16th St,Philadelphia,PA,19130,39.969939,-75.163026,4.5,192,1,1,1,1,1,1,0,0,1,1,1,0,2,0
kOHcpCZQd4uNp6G2uE8o2A,PrimoHoagies,1528 W Ritner St,Philadelphia,PA,19145,39.9209271,-75.1733058,4.0,43,1,0,1,1,1,1,0,1,0,1,0,0,1,0
l3pO6YTjFUgVoXgm3gfUag,Ichiban Buffet,2230 Marlton Pike W,Cherry Hill,NJ,08002,39.9231457,-75.0430536,2.5,48,0,0,1,2,1,1,0,1,1,1,1,0,4,0
h85b3MFPWyaopMBy8DpBpA,Ron's Caribbean Cuisine,5726 N Broad St,Philadelphia,PA,19141,40.0407573,-75.1448014,4.0,142,0,0,1,2,1,1,0,1,0,1,1,0,4,0
G6EkKOLWiOw_8G7olgvalg,Nicoletto’s Italian Kitchen,2123 Belcourt Ave,Nashville,TN,37212,36.1368318853,-86.8029680469,4.0,37,1,1,1,2,0,0,0,1,0,0,0,0,1,0
X8k7N03buo2bBbUUfcAltQ,Taco Bell,645 S Main St,Meridian,ID,83642,43.59716,-116.39233,1.5,38,1,0,1,1,1,1,0,1,1,1,0,0,4,0
D7Os2-9ApTGmNyzidqfwGA,"The Ritz-Carlton Spa, New Orleans",921 Canal St,New Orleans,LA,70112,29.9550178,-90.0709905,4.0,66,0,0,1,4,1,0,1,0,1,1,1,0,1,0
w9hS5x1F52Id-G1KTrAOZg,Wiz Kid,124 S 19th St,Philadelphia,PA,19103,39.9509958568,-75.1723086834,4.5,163,1,0,1,2,1,1,0,1,0,0,0,0,4,0
lpfrjbjIWC0BNZThaSDMLw,Simply Thai Restaurant,5 Paddock Hills Plz,Florissant,MO,63033,38.8015155,-90.3111042,4.0,85,0,0,1,2,1,1,0,1,0,1,0,0,2,0
_v3DcLatG70adfYzWTd-CQ,Pacific Health Foods,944 Linden Ave,Carpinteria,CA,93013,34.398436,-119.5187939,4.5,97,1,0,1,2,0,0,0,1,1,0,0,0,1,0
FtkYGVPVCRuuhQhYJBSVQw,Zimmer's Seafood,4915 St Anthony Ave,New Orleans,LA,70122,30.0083429,-90.0644403,4.0,81,0,0,1,2,1,1,0,1,0,0,0,0,4,0
RyndNvh5DEsywX76cAkpeg,Long Hollow Pizza and Pub,"900 Conference Dr, Ste 7B",Goodlettsville,TN,37072,36.3222792,-86.7031195,4.0,90,1,0,1,2,0,1,0,1,1,1,0,1,4,0
nnZIsmpIQnuQY5S-MoGyvg,Baguette Deli,5204 W Franklin Rd,Boise,ID,83705,43.603511,-116.245104,4.0,207,0,0,1,1,1,1,0,1,0,0,0,0,4,0
k9A4tAmei12tLprkrNPkcg,El Pollo Loco,10320 N Mccarran Blvd,Reno,NV,89503,39.5321041,-119.8640278,3.5,54,1,0,1,1,1,1,0,1,1,1,0,0,4,0
Qg9Sx8RwqnpYKQeSjfPh2w,Le Mouton Noir Bakehouse,1112 Channelside Dr,Tampa,FL,33602,27.95127,-82.446107,3.5,35,0,1,1,2,1,1,0,1,1,1,0,0,1,0
NKnwvuJygWPC42qycr6Hwg,Mano's Po-Boys,6943 Saints Dr,Metairie,LA,70003,29.981498,-90.2117653,4.5,77,1,0,1,2,1,1,0,1,0,1,1,0,2,0
2va-BK-z06mmPkSjNAJX0w,China King,450 Pennbrook Pkwy,Lansdale,PA,19446,40.2284736,-75.2820167,3.5,42,1,0,1,1,1,1,0,1,0,1,0,0,1,0
FYIL5duVgc9eLyYw6hobmw,Ellington's,401 Union St,Nashville,TN,37219,36.1648001,-86.7799287,4.0,107,1,1,1,1,1,0,1,1,1,1,1,1,1,0
c8rjE6NcfeyzLB_aU1GdMA,Sláinte Pub & Grill,3000 Market St,Philadelphia,PA,19104,39.954815805,-75.1836068183,3.5,139,1,0,1,2,1,0,1,1,1,1,0,0,4,0
y5vYOsyL4bSFxeOtQtYbg,AJ's Fine Foods,2805 E Skyline Dr,Tucson,AZ,85718,32.3244248352,-110.9316140628,4.0,258,1,1,1,2,1,1,0,1,1,1,0,0,4,0
zxuVnNVAUm16Sro0dS_lmg,Roundabout Grill,"Whitney Peak Hotel, 255 N Virginia St",Reno,NV,89501,39.5278513,-119.8143374,4.0,244,0,0,1,2,1,1,1,1,1,1,1,1,4,0
mCo2uVTTGYrEhRrkQW-CMw,Empress Garden,108 N 10th St,Philadelphia,PA,19107,39.9539403,-75.1563093,4.0,263,1,0,1,2,1,1,0,1,0,1,0,0,4,0
71b0dSgq1XTYYYWs24Fhow,Poké Poké Bowl,"927 Dodecanese Blvd, Ste 2",Tarpon Springs,FL,34689,28.1551896,-82.7638098,4.5,68,1,0,1,2,0,1,0,1,0,0,1,0,1,0
nYRFGR2C-OOhRvO8rvI4qw,Mrs Marty's Deli,1991 Sproul Rd,Broomall,PA,19008,39.959999486,-75.3536066,3.0,79,1,0,1,2,1,1,0,1,1,1,0,0,2,0
at82YGuTKWrVyY3lPHh7eg,McAlister's Deli,"12101 Manchester Rd, Ste A",Des Peres,MO,63131,38.602781331,-90.4377430103,3.5,34,1,1,1,1,1,1,1,1,0,1,0,0,4,0
y3iKFTk_sgIXCT6fNcBn_Q,Chili's,2794 E Fowler Ave,Tampa,FL,33612,28.0550259,-82.4280458,2.0,114,1,0,1,2,1,1,0,1,1,1,0,1,4,0
4NidY2tw42l6iobbtai_kA,New Orleans Social House,752 Tchoupitoulas St,New Orleans,LA,70130,29.9450631,-90.0672652,4.0,136,0,0,1,2,1,0,0,0,1,1,1,1,4,0
i45WZvp-Sg7MlELrHzlUxg,Crust N Fire,439 Larchmont Blvd,Mount Laurel,NJ,08054,39.9787556,-74.8779393,3.5,94,1,0,0,1,0,0,0,1,0,0,0,0,1,0
f8GG-nvuzMpcGIs3cbKUkw,Mexico City Grill,11653 Fishers Station Dr,Fishers,IN,46038,39.9575011,-86.0383534,3.5,63,0,0,1,2,1,1,1,1,1,1,0,0,4,0
8bkSuPXdYW58QsUEOG77HQ,Taverna Food Spirits,1850 Broad Ripple Ave,Indianapolis,IN,46220,39.8688431771,-86.1284977181,3.5,35,0,1,1,3,1,0,1,1,0,1,0,0,1,0
T5f-IRQWQYgFQbgO_kVkvg,Northbrook MarketPlace,1805 Unionville Wawaset Rd,West Chester,PA,19382,39.912781,-75.684904,4.0,60,1,1,1,1,1,1,1,1,1,1,1,0,1,0
k-Wb-2Y2RFGlaY00_Hm8Sw,Slice Of Heaven Pizza,1366 Alt 19,Holiday,FL,34691,28.1790012359,-82.7431934248,3.5,66,1,1,1,1,1,1,1,1,1,1,0,0,2,0
wzIN0IqcNOnUjwuzRoG9AA,Sweet Soulfood,1025 N Broad St,New Orleans,LA,70119,29.9737325598,-90.0807557021,4.5,385,1,1,1,2,1,1,0,1,0,1,0,0,4,0
qC63cwAI-baLmbEdxbR3FA,Joel's Pizza Palace,1028 Bloomingdale Ave,Valrico,FL,33596,27.8937222,-82.2684033,4.0,44,1,1,1,1,1,1,0,1,1,1,0,0,3,0
n2HP8fenpzI7eg6TRDj4lw,Pizza Hut,6111 Crawfordsville Rd,Speedway,IN,46224,39.7994921703,-86.2674245238,1.5,32,1,0,1,1,1,1,0,1,1,1,0,0,4,0
nFSqTOt1LZSHQQKQsUZiKw,Stargate Diner,240 W Chester Pike,Ridley Park,PA,19078,39.871518,-75.330174,3.5,71,1,0,1,1,1,1,0,1,1,1,0,0,4,0
KZe5kpIHWVuJl6WgNYzceg,Please-U-Restaurant,1751 Saint Charles Ave,New Orleans,LA,70130,29.9367378,-90.0776308,4.0,274,1,0,1,1,1,1,1,1,1,1,0,0,4,0
iXemjTj5TOByT1-cNTSaDw,PureBread Deli,1309 Churchmans Rd,Newark,DE,19713,39.692037,-75.666564,4.0,64,1,0,1,1,1,1,0,1,1,1,1,0,4,0
X7YBx8CybmIPymZ0ThCmng,Ninth Street Deli at Howards,2732 S 13th St,Saint Louis,MO,63118,38.6005985,-90.2143307,4.5,128,1,1,1,2,1,1,0,1,1,1,1,0,4,0
wi4F4NUvxn7UWHvQ1Iiz7w,Annex,400 Beach Dr NE,Saint Petersburg,FL,33701,27.7770193148,-82.6317201189,3.5,46,0,1,1,2,0,1,0,1,1,1,1,0,1,0
7wQEzj-0yOpLiANNLuUflQ,Deepwater Diner,455 Shell Rd,Penns Grove,NJ,08069,39.691701,-75.484253,4.0,49,1,0,1,1,1,1,0,1,1,1,0,0,4,0
K_FDDqmOt6hJLTOPgpnlA,Fazoli's,1698 Country Club Plaza Dr,Saint Charles,MO,63303,38.7687386424,-90.5228420951,2.5,32,1,0,1,1,1,1,0,1,0,1,0,0,4,0
I2Yt74AzSQFfyQqgN7PSEg,Sheraton Indianapolis Hotel at Keystone Crossing,8787 Keystone Crossing,Indianapolis,IN,46240,39.9153605,-86.1084079,2.5,141,0,0,1,2,0,0,0,0,1,0,1,0,1,0
rVfe1LHo55A2fworkm_jVw,Capofitto,233 Chestnut St,Philadelphia,PA,19106,39.9485775068,-75.1450225711,4.5,205,1,0,1,2,1,1,1,1,1,1,1,1,4,0
18h9q-R5PdlSjkE1DGKHXA,The Lost Cajun - Mt Juliet,512 Pleasant Grove Rd,Mt. Juliet,TN,37122,36.1780039457,-86.5168370716,4.0,47,0,0,0,1,0,1,0,1,0,0,0,0,1,0
O6hY9yenifuRXrpc4TfgsQ,The Blue Duck,2859 Holme Ave,Philadelphia,PA,19152,40.0571673033,-75.0304835714,4.0,495,0,1,1,2,1,1,1,1,1,1,1,0,2,0
VOGWnQHijIpURf4eNSvIaw,Imperial Asian Buffet,21627 Villages Lakes Shopping Dr,Land o lakes,FL,34639,28.190878,-82.458285,3.0,56,0,0,1,2,1,1,0,1,1,1,0,0,4,0
2gTnSpYBmg_5JubGpCtSQQ,McDonald's,9611 N By Ne Blvd,Fishers,IN,46038,39.9276258761,-86.0256541474,2.0,41,1,1,1,1,1,1,0,1,1,1,0,0,3,0
bMpKXcKFetJQsa42UR25cQ,Pravda!,1113 Decatur St,New Orleans,LA,70116,29.960245,-90.059869,4.0,109,0,1,1,2,1,0,0,0,0,1,0,0,4,0
txasGoZ1qB5toVaFiTbpmQ,The Brunchery,17507 Preserve Walk Ln,Tampa,FL,33647,28.127905,-82.3691115,4.0,88,1,1,1,2,1,1,0,1,1,1,0,0,4,0
4yKv0SEpuJDHECFinhifWQ,Quinn's Restaurant & Lounge,1005 Vista Ave,Boise,ID,83705,43.595022,-116.214032,3.0,75,1,1,1,2,1,0,1,1,1,1,1,1,4,0
Cpl1-0iX6N7yauiJKhpXfA,Hong Kong Star Noodle House,2852 Street Rd,Bensalem,PA,19020,40.111675,-74.955319,3.5,50,1,0,1,2,1,1,1,1,1,1,0,0,1,0
YlEBQLfRHocJDn4gRlgczw,Brick City Eatery,"16540 Pointe Village Dr, Ste 108",Lutz,FL,33558,28.189368941,-82.540934119,4.0,114,1,0,1,2,1,1,0,1,1,1,1,1,4,0
d91RHJeZE-I7TaeQdBp6MQ,Five Guys,1212 S Clearview Pkwy,Harahan,LA,70123,29.9599745904,-90.1852179534,3.5,89,1,1,1,1,1,1,0,1,0,1,0,0,2,0
k6XrnjX2TBM_nDzD_XA9NQ,Terrace Lounge,2707 S Virginia St,Reno,NV,89502,39.4972231,-119.8010219,3.5,84,0,1,1,2,1,0,0,0,1,1,0,0,4,0
1PYqegX1SruVbkCsRF-4lA,Opry Backstage Grill,2401 Music Valley Dr,Nashville,TN,37214,36.2177772,-86.6949403,3.5,195,1,0,1,2,1,1,1,1,1,1,0,0,4,0
37yDMpWI6HBO2iW8slv7_Q,Tutti Frutti Frozen Yogurt,7708 Delmar Blvd,University City,MO,63130,38.6592269326,-90.338040106,4.0,52,1,1,1,1,1,1,0,1,1,1,0,0,1,0
V0vIgo6196MDn_x3ZaYmA,La Creperie Cafe,1722 Sansom St,Philadelphia,PA,19103,39.9506242,-75.1697297,3.5,146,0,0,1,2,1,1,1,1,0,1,0,0,1,0
YPnksHT2DQA0AhcxP6udxw,Corner Bakery,160 N Gulph Rd,King of Prussia,PA,19406,40.08705,-75.395706,3.5,63,1,0,1,1,1,1,0,1,1,1,0,0,4,0
UhjfJpaAzgSYrTZ_dMMF1Q,Philly Diner,51 Industrial Hwy,Essington,PA,19029,39.8674080649,-75.3082371545,2.5,129,1,0,1,2,1,1,0,1,0,1,0,0,4,0
8xz4jzsKSU10CFvbHhYJXw,Joe's Crab Shack,8250 Dean Rd,Indianapolis,IN,46240,39.9062719,-86.0987866,3.0,62,0,1,1,2,1,1,0,1,1,1,0,0,4,0
2JvQsqJ5-bJGf_jVQKakDQ,Gringo Tacos + Burgers,635 Washington Ave,St. Louis,MO,63101,38.6305572048,-90.1901568674,3.5,174,1,1,1,2,1,1,1,1,1,1,1,1,4,0
AEOd0wRdjeLIXb1usSp9hg,Kung Fu Noodle,"3122 N Campbell Ave, Ste 100",Tucson,AZ,85719,32.2636803,-110.9431659,4.0,217,1,0,1,2,1,1,1,1,1,1,0,0,2,0
ksLHy9XXZVYuIVowdRc_w,Shiraz Wine Cafe',404 W Main St,Carmel,IN,46032,39.978529,-86.131936,2.5,39,0,1,1,2,1,0,1,0,0,1,0,0,4,0
EBn3U4mpnIRLIy2lKuilRQ,Logan's Roadhouse,727 Thompson Ln,Nashville,TN,37204,36.1119137436,-86.766502,2.0,120,1,0,1,2,1,1,0,1,1,1,0,1,2,0
kLS3Sth5HvO0IjrXCCvXxA,Wawa,19th St & Market St,Philadelphia,PA,19103,39.953351,-75.172624,2.5,45,1,0,1,1,0,0,0,1,1,0,0,0,4,0
sdWuLh-auc0nC2Jy6_26AQ,The Black Sheep Pub & Restaurant,247 S 17th St,Philadelphia,PA,19103,39.9484223,-75.1692901,3.5,339,1,0,1,2,1,0,0,1,1,1,0,0,4,0
o2ETM4XZXENkzuAaYT2GIg,Sen Thai Asian Bistro,1000 Washington Ave,St Louis,MO,63101,38.631047559,-90.1941606669,4.0,181,1,0,1,2,1,1,1,1,1,1,1,1,4,0
ncxN9II-MeXRudUrE3GVsA,Bridgeport Rib House,1049 Ford St,Bridgeport,PA,19405,40.0991065,-75.3513976,3.5,135,0,0,1,2,1,0,0,1,0,1,0,1,3,0
1JHPRGTHrrSIcKDGzsXddQ,Logan's Roadhouse,351 S Perry Rd,Plainfield,IN,46168,39.714395,-86.354627,2.5,76,1,0,1,2,1,1,0,1,1,1,0,0,4,0
1Pxg1AMf0rEn9QF__ZYoWw,Samurai Sushi,2209 Elliston Pl,Nashville,TN,37203,36.1510902665,-86.8037759995,4.0,367,1,1,1,2,1,1,0,1,0,0,0,1,4,0
hr1XaVzp6htS41LjwKjIbQ,Stella Maris Restaurant & Hookah Lounge,7555 W Judge Perez Dr,Arabi,LA,70032,29.9594566,-89.9931219,4.5,78,1,1,1,2,1,1,1,1,1,1,1,0,1,0
NvMYRJ_wPJmt4FFsEF7O0A,Perfect Taste,6310 Delmar Blvd,University City,MO,63130,38.6556212656,-90.30247748,4.0,65,1,0,1,2,1,0,1,1,1,0,1,0,1,0
G6kRQylkjNNE-yUXM2muBg,Brandon Bagels,942 W Brandon Blvd,Brandon,FL,33511,27.9382531,-82.2973831,4.5,119,1,0,1,1,0,0,0,1,0,0,0,0,4,0
TqgsB91kKWjU4aKGR4GCgQ,Brother Paul's,3300 Ridge Pike,Eagleville,PA,19403,40.1595512,-75.4085693,3.0,85,0,1,1,2,1,1,0,1,1,1,0,0,4,0
3OGzmGqWwsyGLkhnxrA9Pw,Gourmet Pizza Company,"610 S Armenia Ave, Ste 101",Tampa,FL,33609,27.937948,-82.484684,4.0,185,1,0,1,2,1,1,0,1,1,1,1,0,4,0
CGVpuQ3FpPWyYFQJQlsjLQ,Mole y Abuela,1202 N Franklin St,Tampa,FL,33602,27.9536077,-82.4604458,4.0,201,1,1,1,1,1,0,1,1,1,1,0,1,4,0
nPgRFNyRYW5xG4MkWzc_iQ,Station 52 Sports Bar & Pizzeria,329 Kennett Pike,Mendenhall,PA,19357,39.8534084,-75.6407886,3.0,42,1,1,1,2,1,1,0,1,1,1,0,0,2,0
eS4billU3Yd9hoVUFfZFbA,Skyline Chili,28798 US Hwy 19 N,Clearwater,FL,33761,28.0338251,-82.7391913,4.0,81,0,1,1,1,1,1,0,1,1,1,0,0,4,0
TMT9U2da4ewGbk38X54KJA,Hackett's Causeway Cafe and Creamery,901 Curlew Rd,Dunedin,FL,34698,28.0489350817,-82.7799664065,4.5,102,1,1,1,1,1,1,0,1,1,1,0,0,1,0
Yll7kUVI7j0gArBMQKpEaQ,High Brow Coffee + Tea,"188 Front St, Ste 102",Franklin,TN,37064,35.929464,-86.919329,4.0,125,0,1,1,1,1,1,0,1,1,0,1,0,4,0
iHC-f9m5EEOIJMXCW3bmBA,Swagruha Indian Cuisine,12338 Dorsett Rd,Maryland Heights,MO,63043,38.713891,-90.4494678,2.5,35,1,0,1,2,1,1,1,1,1,1,0,0,2,0
ajfBGoRGUzhD0fTXLENcrw,Asahi Sushi & Asian Grill,102 Woodland Hwy,Belle Chasse,LA,70037,29.8635757,-89.9964664,4.0,56,0,0,1,2,1,1,1,1,0,1,1,0,1,0
PwcYNxBGzefCM1ofAMZJ9Q,DK Donuts,1300 W State St,Boise,ID,83702,43.6219161,-116.2065136,4.0,56,0,0,1,1,0,0,0,1,0,0,0,0,1,0
KxrXqdsgT7lcghhNk00z6w,Jerry Bob's,"7850 N Silverbell Rd, Ste 156",Tucson,AZ,85743,32.350026,-111.0994,3.0,33,1,0,1,1,1,1,0,1,1,1,0,0,4,0
3XirYkP9PJvVXIEDPNNXLA,Crown Candy Kitchen,1401 St Louis Ave,St. Louis,MO,63106,38.651334,-90.197874,4.5,558,0,0,1,1,1,1,0,1,0,0,0,0,4,0
9_m_iA3VAqGBJEW5XLc-5w,The Cuban Sandwich Shop,8329 Michigan Rd,Indianapolis,IN,46268,39.906797,-86.2182121,4.5,506,0,0,1,2,1,1,0,1,0,1,1,0,4,0
3CsBRtDT5WOUu8IY0mHhXw,Slices Pizza,4249 Ridge Ave,Philadelphia,PA,19129,40.0096537,-75.1954732,4.0,122,1,1,1,1,1,1,0,1,0,0,0,0,4,0
7l-j0MBJr8KR7Hzk4uaaAQ,Wingstop,4704 Veterans Memorial Blvd,Metairie,LA,70006,30.0045163,-90.1884469,2.5,87,1,0,1,1,1,1,0,1,1,1,0,0,4,0
xHdekRjTK93GR2AgtvrtgQ,Growler's Taphouse,8275 N Silverbell Rd,Tucson,AZ,85743,32.3573574258,-111.1140279582,3.5,149,1,1,1,2,1,1,0,1,1,1,0,1,4,0
FYw5uf26ry8-MuPKD10z0Q,Josef's Vienna Bakery & Cafe,933 W Moana Ln,Reno,NV,89509,39.4920598234,-119.8060837054,4.0,382,1,1,1,2,1,1,0,1,1,1,1,0,4,0
16zHT7zp6K9IEQZ1oW6xXg,PB's Diner,500 Delsea Dr N,Glassboro,NJ,08028,39.7136834654,-75.1113189153,2.5,119,1,1,1,2,1,1,0,1,1,1,0,1,4,0
zOXvoQVFElBEhz__YT6VNw,Logan's Roadhouse,1715 Gallatin Pike N,Madison,TN,37115,36.295855,-86.699384,2.0,62,1,1,1,2,1,1,0,1,0,1,0,0,4,0
fdqBP3kBrZHRHzQkoiNJ3g,Ho-Ho Chinese Restaurant,1801 Zumbehl Rd,Saint Charles,MO,63303,38.77677,-90.529285,3.0,34,1,0,1,2,1,1,0,1,0,1,0,0,1,0
oHAAlU_Yts_avncJK0hJpw,Barro's Pizza,5884 W Arizona Pavilions Dr,Marana,AZ,85743,32.3540985457,-111.0903744749,3.5,116,1,0,1,2,1,1,0,1,1,1,0,1,4,0
uPVKWy0VeMMHMJ0V87nMMw,Rolynos Original Pizza,3530 S Mann Rd,Indianapolis,IN,46221,39.7759919521,-86.2499258245,3.5,33,1,0,1,2,1,0,0,1,1,0,1,0,4,0
nP4LqTcK1USiw5WnbOjW7A,Marrakesh Express,4407 Chestnut St,Philadelphia,PA,19104,39.9567155,-75.2100343,4.5,48,1,0,1,1,1,1,0,1,0,1,0,0,1,0
iHV3uBo1N9ETBtuEqdDsWQ,Sun King Broad Ripple,1021 Broad Ripple Ave,Indianapolis,IN,46220,39.8693211,-86.1407479,4.0,97,0,1,1,2,1,1,0,1,1,0,1,0,4,0
ZapDvyE7lJxVxlmeeKyjkg,Daisy Mae's Southern Fried Chicken & Breakfast,920 Poydras St,New Orleans,LA,70112,29.9500396,-90.073689,4.0,267,1,0,1,2,1,1,0,1,0,1,0,1,4,0
cIohvIbTq6qN7god-sx1zg,Sea Turtle Restaurant,4599 Gulf Blvd,Saint Pete Beach,FL,33706,27.720594,-82.73949759999999,4.0,262,1,1,1,1,1,1,0,1,1,1,0,0,4,0
REns5fQe45Nk_D2UwQyr0w,Barra Restaurant,239 Chestnut St,Philadelphia,PA,19106,39.948818,-75.1456539,2.5,117,1,1,1,2,1,0,1,1,1,1,0,1,4,0
u75fYA_bwkfWK6yvdfveCA,Opas Grill,500 N 4th Ave,Tucson,AZ,85705,32.2280786,-110.9654562,4.5,36,1,1,0,1,0,0,0,1,0,0,0,0,1,0
1NCUTTp6rIyXpwUDVv9qOA,Lazos Pizza & Grill,2533 Poplar St,Philadelphia,PA,19130,39.9727751034,-75.1789870874,4.0,176,1,0,1,1,1,1,0,1,0,1,0,0,4,0
k3EQAQGptzHzl6oEoas61w,Ithai & Sushi Restaurant,11002 Seminole Blvd,Largo,FL,33778,27.8730288,-82.7875025,4.0,63,1,0,1,2,1,1,0,1,1,0,0,0,2,0
