Restaurant_ID,Restaurants_Name,Address,City,State,Postal_Code,Latitude,Longitude,Stars_Rating,Review_Count,Restaurants_Delivery,Outdoor_Seating,Accepts_CreditCards,Price_Range,Alcohol,Good_For_Kids,Reservations,Restaurants_TakeOut,WiFi,Good_For_Groups,Wheelchair_Accessible,Happy_Hour,Noise_Level,Dietary_Restrictions,Total_Estimate_Households_per_Zip,Total_Estimate_Married-couple_Family_households,Total_Estimate_Nonfamily_households,Median_Income(dollars),Mean_Income(dollars),Population
MTSW4McQd7CbVtyjqoe9mw,St Honore Pastries,935 Race St,Philadelphia,PA,19107,39.9555052,-75.1555641,4.0,80,0,0,0,1,1,0,0,1,1,0,0,0,1,0,7823,1743,5771,60676,91522,14875
MUTTqe8uqyMdBl186RmNeA,Tuna Bar,205 Race St,Philadelphia,PA,19106,39.953949,-75.1432262,4.0,245,1,1,1,2,1,0,1,1,1,1,1,1,4,0,7625,2113,5180,116368,162885,11740
ROeacJQwBeh05Rqg7F6TCg,BAP,1224 South St,Philadelphia,PA,19147,39.943223,-75.162568,4.5,205,1,1,1,1,1,1,0,1,0,0,0,0,1,0,18239,6207,10326,86147,128426,36228
9OG5YkX1g2GReZM0AskizA,Romano's Macaroni Grill,5505 S Virginia St,Reno,NV,89502,39.4761165,-119.7893392,2.5,339,1,1,1,2,1,1,1,1,1,1,0,1,4,0,18616,6344,8448,48782,65655,43566
QdN72BWoyFypdGJhhI5r7g,Bar One,767 S 9th St,Philadelphia,PA,19147,39.9398245705,-75.1574465632,4.0,65,1,0,1,2,1,0,0,1,1,1,0,1,4,0,18239,6207,10326,86147,128426,36228
Mjboz24M9NlBeiOJKLEd_Q,DeSandro on Main,4105 Main St,Philadelphia,PA,19127,40.0224662,-75.218314,3.0,41,1,1,1,1,1,1,0,1,1,1,0,0,2,0,2678,639,1962,74936,104604,5913
kV_Q1oqis8Qli8dUoGpTyQ,Ardmore Pizza,10 Rittenhouse Pl,Ardmore,PA,19003,40.0067071,-75.289671,3.5,109,1,0,1,1,1,1,0,1,0,1,0,0,4,0,5665,2805,2250,105061,135760,12519
aPNXGTDkf-4bjhyMBQxqpQ,Craft Hall,901 N Delaware Ave,Philadelphia,PA,19123,39.9625821,-75.1356571,3.5,65,1,1,1,2,0,1,0,1,0,0,0,1,1,0,8565,2020,5678,77111,106137,13416
ljxNT9p0y7YMPx0fcNBGig,Tony's Restaurant & 3rd Street Cafe,312 Piasa St,Alton,IL,62002,38.896563,-90.1862032987,3.0,94,0,1,1,2,1,1,1,1,1,1,1,1,4,0,13430,4893,5675,48720,65294,32704
Si6LXSR9gvAbmgO5DzV2cw,Lafitte's Landing Seafood House,1700 Lapalco Blvd,Harvey,LA,70058,29.8754822266,-90.04938,2.5,38,0,0,1,2,1,1,1,1,1,1,0,0,1,0,13844,5653,4888,49551,72216,39887
seKihQKpGGnCeLuELRQPSQ,Twin Peaks,6880 E 82nd St,Indianapolis,IN,46250,39.9062952,-86.0474634,3.5,257,0,1,1,2,1,1,0,1,1,1,0,1,2,0,9034,2918,5049,57053,80231,18546
qfWJmJ0g96eM_fWma3ja0g,Doc Magrogan's Oyster House - West Chester,117 E Gay St,West Chester,PA,19380,39.9615417,-75.6036042,3.0,114,0,1,1,2,1,1,1,1,0,1,0,1,4,0,20999,11647,7482,106738,136205,49534
ppFCk9aQkM338Rgwpl2F5A,Wawa,3604 Chestnut St,Philadelphia,PA,19104,39.954573,-75.1948936,3.0,56,1,0,1,1,1,1,0,1,1,1,0,0,4,0,16508,2296,10575,28603,46430,51808
IDtLPgUrqorrpqSLdfMhZQ,Helena Avenue Bakery,"131 Anacapa St, Ste C",Santa Barbara,CA,93101,34.4144445,-119.6906718,4.0,389,1,1,1,2,1,1,0,1,0,1,1,0,4,0,13296,4177,6819,62925,91126,31683
3BJxm-HnvzdwD1zjmSbmyQ,Golden Chopstick Chinese Restaurant,1800 Spring Garden St,Philadelphia,PA,19130,39.963077709,-75.1680274529,3.0,137,1,0,1,1,1,1,1,1,1,1,1,0,4,0,14431,4157,9196,88858,121662,24870
SZU9c8V2GuREDN5KgyHFJw,Santa Barbara Shellfish Company,230 Stearns Wharf,Santa Barbara,CA,93101,34.4087147,-119.6850187,4.0,2404,1,1,1,2,1,1,0,1,0,0,0,0,4,0,13296,4177,6819,62925,91126,31683
WYYdQDjx-DsCanlP0DpImQ,J Sushi,243 S 10th St,Philadelphia,PA,19107,39.9470334,-75.1574339,4.5,72,1,0,1,2,1,1,1,1,1,1,1,0,4,0,7823,1743,5771,60676,91522,14875
G4lRmwDHdvhZAhmtlsYYBw,Wendy's,741 Thompson Ln,Nashville,TN,37204,36.112075744,-86.7674462724,1.5,37,1,0,1,1,1,1,0,1,0,1,0,0,1,0,6080,2403,3122,89954,148770,12031
BxhkoR6cscJwwex8gx31OA,Bar-B-Cutie,1787 Gallatin Pike N,Madison,TN,37115,36.296536,-86.700179,3.5,40,1,0,1,2,1,1,0,1,0,1,0,0,2,0,17024,4935,8154,46777,59429,37316
pmuuoDqNZp7518AUd-YmPA,Bagelicious - King Of Prussia,216 W Beidler Rd,King of Prussia,PA,19406,40.1124813,-75.3799748,3.5,60,0,0,1,1,0,0,0,1,0,0,0,0,1,0,11438,5682,4700,97305,114751,23441
Dtuf4vD0znzwJW9vk3iTNw,Tomo Japanese Steakhouse and Sushi Bar,"7411 N Keystone Ave, Ste A",Indianapolis,IN,46240,39.8887246,-86.1212129,4.0,246,1,0,1,2,1,1,1,1,1,1,0,0,4,0,10165,3497,6021,56744,97368,18731
Ucl9Vo5lwrUmYbV8Dv8X5g,O'Briens Irish Pub,15435 N Dale Mabry Hwy,Tampa,FL,33618,28.09236,-82.500588,4.0,108,0,1,1,2,1,1,0,1,1,1,0,0,3,0,12100,5819,4724,68245,106081,25570
Y6heWJJ9AmEL58fZwgi9YQ,Rosati's Pizza,2944 W Ina Rd,Tucson,AZ,85741,32.3387235226,-111.0303098651,4.0,58,1,1,1,2,1,1,0,1,1,0,1,1,1,0,13989,5663,5499,63092,73330,32998
bTve2mwLk5Zc01vRKqc2KQ,Red Hook Coffee & Tea,765 S 4th St,Philadelphia,PA,19147,39.9385518,-75.1496356,4.5,183,0,1,0,1,1,1,0,1,1,0,0,0,1,0,18239,6207,10326,86147,128426,36228
xbRbvXSAVZBEwaUUn3mzbg,Lee Roy Selmon's,14457 N Dale Mabry Hwy,Tampa,FL,33618,28.0787347875,-82.5063104158,3.5,42,1,1,1,2,1,1,1,1,1,1,0,1,4,0,12100,5819,4724,68245,106081,25570
v5kwdvmg-J8g-ll0nkc3Sw,The Libertine Liquor Bar,38 E Washington St,Indianapolis,IN,46204,39.7672488945,-86.1567753553,4.0,208,0,1,1,2,1,0,1,1,1,0,0,0,4,0,4582,498,3999,73281,100517,5125
bqmX882_6AxVA_uHEQ70sQ,Shanghai Station,4002 Spruce St,Philadelphia,PA,19104,39.9516153765,-75.2033457223,4.0,46,0,0,1,2,1,1,1,1,1,1,0,1,2,0,16508,2296,10575,28603,46430,51808
wZhGuW7vQpfhxeEvLHkTrA,Express Cafe,400 E Fairview Ave,Meridian,ID,83642,43.6196488,-116.3871392,4.5,119,0,0,1,1,1,1,0,1,0,1,1,0,4,0,17854,10414,5003,75708,95807,37008
VbItL6RDULtnw4YvB6EhVg,Jon's Bar & Grille,300 South St,Philadelphia,PA,19147,39.9412993,-75.1477446,3.0,178,0,0,0,2,1,1,0,1,0,1,0,0,4,0,18239,6207,10326,86147,128426,36228
JF7iyI3wA_AKi_iXOKi0Qw,Parlor Suburban Square,30 Parking Plz,Ardmore,PA,19003,40.008645,-75.288802,3.5,61,1,1,1,2,1,1,1,1,1,1,1,1,4,0,5665,2805,2250,105061,135760,12519
7GDqSUaXrpC8Ql7nDBxWA,B2 Bluefin,401 E City Ave,Bala Cynwyd,PA,19004,40.0079839104,-75.2126064939,4.0,92,0,0,1,4,1,0,1,1,1,1,1,1,4,0,3869,2223,1313,122950,174755,9416
tuyCmcmm5Q-bc-9zV76xKA,Pho Friendly,729 Brunswick Ave,Trenton,NJ,8638,40.23547,-74.7532115132,4.5,93,1,1,1,2,1,1,0,1,1,1,0,0,1,0,8081,2552,3463,57064,72035,22832
1E9o1SNo7UTf1XHTFPv1_Q,Franklin Juice Co,"230 Franklin Rd, Ste 11W",Franklin,TN,37064,35.9326054453,-86.860662065,4.5,66,1,1,1,2,1,1,0,1,1,1,1,0,4,0,21795,14497,4934,105342,134928,48118
0CEUpFtaKhxbmrbSdP9MUQ,Acadia,824 S 8th St,Philadelphia,PA,19147,39.9389483,-75.1564078,4.0,79,1,1,1,2,1,1,1,1,1,1,0,1,1,0,18239,6207,10326,86147,128426,36228
f82dhKNiUXsDVPMLqKYiIQ,Sher-e-Punjab,853 East Grant Rd,Tucson,AZ,85719,32.2509598946,-110.9591583204,4.0,446,1,0,1,2,1,1,1,1,1,1,0,1,4,0,18119,3526,12170,34013,48571,43989
TEP-73fGvgSUmtQFaOTA_g,The Steak Out,3640 W Tangerine Rd,Marana,AZ,85658,32.424551,-111.042885,2.5,30,0,1,1,2,1,1,1,1,0,1,0,1,3,0,4734,3364,931,90114,111834,7790
xJyp6RLqNRv3tSu6njPKxQ,World of Beer,"102 Main St, Ste 100",Exton,PA,19341,40.0236651,-75.6291878,3.0,208,1,1,1,2,1,0,0,1,1,1,1,1,4,0,7825,4563,2392,107338,135072,16709
XwoXi0M66RU6Gouq-DSDHw,G Peppers Grill & Tavern,8745 Gunn Hwy,Odessa,FL,33556,28.0921362,-82.5785736,4.0,82,0,0,1,1,1,1,0,1,1,1,0,1,4,0,8310,5913,1538,112459,158971,22015
0DbIUh_Xuj6H5B_SF0RLCQ,Iguana's Mexican Restaurant,"680 E 56th St, Ste A",Brownsburg,IN,46112,39.8518617214,-86.3847577572,4.0,74,1,1,1,2,0,1,0,1,0,1,0,1,4,0,13502,8805,3169,91131,107476,33662
bSJczuohHVko33UT82hnfA,Blaze Pizza,611 O'keefe Ave,New Orleans,LA,70113,29.948395,-90.075281,4.0,302,1,1,1,1,1,1,0,1,1,1,1,0,2,0,3647,332,2433,25142,47800,7025
PCM-vL-vRLJ4HB2OE8Nnbg,Baxter's Saloon & Grill,20 Liberty Blvd,Malvern,PA,19355,40.0536347,-75.526719,2.5,31,0,1,1,2,1,0,1,1,1,1,0,0,2,0,10090,6457,2800,133686,187043,24760
dChRGpit9fM_kZK5pafNyA,The Love,130 S 18th St,Philadelphia,PA,19103,39.9506555,-75.1708991,4.0,618,1,1,1,2,1,0,1,1,1,1,0,1,4,0,15765,3571,11832,79110,134268,21908
KdkMXzeoqpfNsZd-_axoTQ,emPIEnada,3683 Kings Row,Reno,NV,89503,39.5428346,-119.8569115,4.5,41,1,1,1,1,1,0,0,1,0,0,1,0,1,0,12469,4209,6739,54063,76117,27891
od6skmfXz9twktEAuJHEmw,Ryan Christopher,245 Woodbine Ave,Narberth,PA,19072,40.0099504,-75.2591858,4.0,120,1,1,1,2,1,1,1,1,1,1,0,0,4,0,4121,2443,1246,131685,209007,9539
j9Kaj_6tSeXmVMYCgZithg,Noble Crust,28330 Paseo Dr,Wesley Chapel,FL,33543,28.188219,-82.347274,4.5,496,1,1,1,2,1,1,1,1,1,1,1,1,4,0,9822,5932,2307,84375,99790,21898
juVJO2kMrHwCYXwQQmv1Tg,Sidekicks Pizza,1105 Shelby St,Indianapolis,IN,46203,39.7520076,-86.1395724,4.0,45,1,1,1,2,1,1,1,1,1,1,1,0,1,0,14085,4662,6134,41321,58332,38950
Wt1W6qwCvna1KzIuJRJbwA,Tokyo Mandarin,370 Delsea Dr N,Glassboro,NJ,8028,39.7119376,-75.1109667,4.0,88,0,0,1,2,1,1,1,1,0,1,0,0,1,0,6696,3282,2253,75189,87171,20078
kwQzVF5GP8DzdyBavvhIaQ,Fisherman's Cove Seafood,3201 Williams Blvd,Kenner,LA,70065,30.0144336,-90.2402643,4.0,91,0,0,1,2,1,1,0,1,0,1,0,0,4,0,19229,8675,6958,57206,79639,51116
7mpYTDb24SywNMRn3yeakQ,The Twisted Tail,509 S 2nd St,Philadelphia,PA,19147,39.9418766,-75.1451988,4.0,604,0,1,1,2,1,0,1,1,1,1,1,1,4,0,18239,6207,10326,86147,128426,36228
5iuo1kvv0XZMS0bUOoLz2Q,Bistro St. Tropez,"2400 Market St, Ste 427",Philadelphia,PA,19103,39.9535919923,-75.1794226902,3.5,163,1,0,1,2,1,0,1,1,0,1,0,0,1,0,15765,3571,11832,79110,134268,21908
rR30b1XWbxZFFgLyGbfNAw,BODHI : Craft Bar + Thai Bistro,922 Massachusetts Ave,Indianapolis,IN,46202,39.7802203,-86.1418027,4.5,132,0,0,1,2,1,0,0,1,1,1,1,0,4,0,9714,1991,7113,50216,79733,16335
4QFqi8w3rlZTcc5LXKyPJw,Chris' Pizza Village Pleasant View,"244 Village Sq Pleasent, Ste 100",View,TN,37146,36.387932573,-87.0147362534,4.0,31,0,1,1,2,1,1,0,1,0,1,1,0,1,0,2618,1812,387,83786,97034,7182
ngvE1G9IckUO-ljZBFo23w,Mumbai Bistro,930 Locust St,Philadelphia,PA,19107,39.947207,-75.1572515,4.0,217,1,0,1,1,1,1,0,1,0,0,0,0,1,0,7823,1743,5771,60676,91522,14875
46_2e1hnQ4csLrYnhn6bkw,Whetstone Tavern,700 S 5th St,Philadelphia,PA,19147,39.9408715785,-75.1510468125,4.0,166,0,1,1,2,1,0,1,1,1,1,0,1,4,0,18239,6207,10326,86147,128426,36228
VCkSUsdL5P0p16DAPxVROA,NY Bagel & Deli Shop,1120 Buttonwood St,Philadelphia,PA,19123,39.960811,-75.1573883,4.0,31,1,0,1,1,0,0,0,1,1,0,0,0,4,0,8565,2020,5678,77111,106137,13416
XRkzSBTroG7kIdI7Z8ic6g,Piccadilly,"2222 Clearview Pkwy, Ste 107",Metairie,LA,70001,29.994939,-90.18365,3.0,51,1,0,1,1,1,1,0,1,1,1,0,0,4,0,16638,6475,7575,56724,74980,37996
FW1PXpUq-yOs-5O_gqz3AQ,Big Mike's BBQ,6901 Sheldon Rd,Tampa,FL,33615,28.0114997,-82.5828401,4.5,32,0,1,1,1,1,1,0,1,1,1,0,0,1,0,18028,7440,6638,53516,73973,43453
SlLfWzeYOrVBxCd-0QILZQ,The Boiling House,"1990 Marlton Pike E, Ste 10",Cherry Hill,NJ,8003,39.8996609,-74.9532997,4.0,238,1,1,1,2,1,1,1,1,1,1,1,0,4,0,10884,7816,2038,132441,162489,30629
IbndcMURguByburM72o3SA,State Street Kitchen,24 S State St,Newtown,PA,18940,40.2285432,-74.9370146,4.5,124,0,0,1,1,1,1,0,1,0,0,0,0,4,0,11515,7555,3170,132214,176878,28825
diwwt5QBU3-Thig9SVlsOA,Brew Brothers,345 N Virginia St,Reno,NV,89501,39.5295616355,-119.8145651258,3.5,592,1,0,1,2,1,0,0,1,1,1,0,0,2,0,2776,332,2213,44393,55619,4252
0l_njS4wGMadAk1b4nZRUA,Panera Bread,150 Allendale Rd,King of Prussia,PA,19406,40.089985,-75.382315,2.5,58,1,0,1,2,1,1,0,1,1,1,0,0,4,0,11438,5682,4700,97305,114751,23441
3c9TiufCFT2yXXj3R08Vwg,Snellgroves Restaurant,109 S Collins St,Plant City,FL,33563,28.0148425,-82.1231756,3.5,64,1,0,1,1,1,1,0,1,1,1,0,0,4,0,9967,4131,3525,44969,56756,25488
TJe1ZGe-X0-GjOQd00kKxA,Brixx Craft House,"7700 W State St, Ste 100",Boise,ID,83714,43.671633,-116.283591,4.0,115,1,1,1,2,1,1,1,1,0,1,1,1,1,0,10436,4830,4394,59873,87541,20290
HCbJPXWXvwN-C7XfmVy3gA,Granite City Food & Brewery,"49 W Maryland St, Ste B03A",Indianapolis,IN,46204,39.7664200969,-86.1592453161,3.5,258,1,1,1,2,1,1,1,1,1,1,0,1,4,0,4582,498,3999,73281,100517,5125
8JEOmVGQffkr6xtn4vvplQ,Pita Kebob,3028 E College Ave,Ruskin,FL,33570,27.713401,-82.394372,4.0,142,1,1,1,1,1,1,0,1,1,1,0,0,1,0,9788,5270,2497,54977,71811,20758
zjQDk4tZyhEroyqtkgvx0g,The Cobblestone Eatery and Drinkery,115 W St Louis St,Lebanon,IL,62254,38.6041071,-89.8085329,3.5,52,0,1,1,2,1,1,0,1,1,1,1,1,4,0,2281,1200,874,68342,79219,6089
adb1hOYICrJ1Ix8M0sRpbw,Kuzina By Sofia,404 Rt 70 W,Cherry Hill,NJ,8034,39.9124556,-75.0022657,3.0,125,1,1,1,2,1,1,1,1,1,1,0,0,4,0,7233,3665,2457,95248,114885,18151
kfGz2E7Y5FLXJyiKbQYfZg,The Irish Times,629 S 2nd St,Philadelphia,PA,19147,39.9403745,-75.1456109,3.5,44,1,1,1,2,1,1,1,1,1,1,0,0,4,0,18239,6207,10326,86147,128426,36228
H3JjbID9Zhukpqr9uupHAA,Jackson's Bar & Bistro - Nashville,1800 21st Ave S,Nashville,TN,37212,36.1366299,-86.8004366,3.0,402,0,1,1,2,1,0,0,1,1,1,0,0,4,0,7149,2539,4043,71699,135689,20148
O5zuQH_YowDC-rsK8ZEXCA,Tin Drum Asia Cafe,"3867Tampa Rd, Ste 305",Tampa,FL,34677,28.0451503082,-82.6812278379,3.0,62,0,0,1,1,1,1,0,1,1,1,0,0,4,0,8566,4188,2925,69861,100486,20842
Hp3Ony7yW60VPuWHQFIIHA,Frady's One Stop Food Store,3231 Dauphine St,New Orleans,LA,70117,29.963974,-90.0426042,4.5,73,0,1,0,1,1,1,0,1,1,0,0,0,4,0,11998,2259,7592,29663,52476,23389
UX3eq0WsVva-cqlVrzyzFg,Cantina Los Tres Hombres,926 Victorian Ave,Sparks,NV,89431,39.5351105,-119.7548567,3.0,284,1,1,1,2,1,1,1,1,0,1,1,1,4,0,15322,5782,5826,50233,63806,36189
sophKEDc2rBDe-cuOaJDkA,365 Caffe Italiano,"28210 Paseo Dr, Ste 100, Shops At Wiregrass",Wesley Chapel,FL,33543,28.187946572,-82.3500558385,4.5,127,1,1,1,1,1,1,1,1,1,1,1,0,2,0,9822,5932,2307,84375,99790,21898
PdMXmOWDRHICAx6SLgu1dQ,24,2401 Walnut St,Philadelphia,PA,19103,39.9515211,-75.1798731,3.5,111,1,1,1,2,1,1,1,1,1,1,1,1,3,0,15765,3571,11832,79110,134268,21908
dD2p903p8lU0IgXT3OFluA,Edgehill Cafe,1201 Villa Pl,Nashville,TN,37212,36.1429685,-86.7923549,3.5,245,0,1,1,1,1,1,0,1,1,1,0,1,4,0,7149,2539,4043,71699,135689,20148
6mCsrUp9Vl4iXMbOxWtVjA,Dosa Hut Indian Grill,4047 Nolensville Pike,Nashville,TN,37211,36.0810108,-86.7280648,4.0,99,1,0,1,1,1,1,0,1,1,1,1,0,4,0,29353,11228,13064,59075,75023,74755
Mt1FB8hM4XTi3Tk4i0q5gQ,Nicola's Pizza,8 N Franklin St,Lambertville,NJ,8530,40.3664177,-74.9416785,4.0,54,1,1,1,1,1,1,0,1,1,1,0,0,4,0,2958,1577,1158,108963,161712,8071
2DsplH_vy4GCcEnVpn0AbA,Cafe Olivia,222 E Market St,Indianapolis,IN,46204,39.768973,-86.153309,4.5,34,0,1,1,1,1,1,0,1,1,0,0,0,3,0,4582,498,3999,73281,100517,5125
zIDuAuwyaLmNwv4k18mbwA,India Palace,4213 Lafayette Rd,Indianapolis,IN,46254,39.8317759,-86.2404209,3.5,167,1,0,1,2,1,1,1,1,0,1,0,0,1,0,15672,4929,6951,46693,66661,38095
yQhu3LbnB2gQgrquHZ_S6Q,Saladworks,2804 S Eagle Rd,Newtown,PA,18940,40.2340046,-74.9414872286,3.0,42,1,0,1,2,1,1,0,1,0,1,0,0,4,0,11515,7555,3170,132214,176878,28825
gl9APAes1BYYt_8UsDVsPg,Ted's Luncheonette,1201 Clearwater Largo Rd N,Largo,FL,33770,27.9278613,-82.7961982,4.0,37,0,0,1,1,1,1,0,1,1,1,0,0,1,0,11561,4295,5694,47908,66174,25281
gyUBYwpUO_u0nqZdre4l1g,Shanghai Express,Church Rd & Hainespo,Marlton,NJ,8053,39.916113059,-74.9215189617,4.0,74,1,0,1,1,1,1,0,1,1,1,0,0,1,0,18109,10081,6155,99454,124618,45538
rqaIe-61HKlWaGYmVwlw8Q,Petite 4,4 N Latah St,Boise,ID,83706,43.6046712,-116.22804,4.5,121,1,1,1,3,0,0,1,1,1,0,0,0,4,0,14623,4965,7987,57664,80395,29732
kq5Ghhh14r-eCxlVmlyd8w,The Coventry Deli,2000 Market St,Philadelphia,PA,19103,39.953291,-75.173645,4.0,65,1,1,1,1,1,1,0,1,0,1,0,0,4,0,15765,3571,11832,79110,134268,21908
pP4q0Mym-qt20nRqTKbzhQ,Morton's The Steakhouse,1411 Walnut St,Philadelphia,PA,19102,39.949603,-75.1649701595,3.5,149,0,0,1,4,1,0,1,0,0,1,0,1,1,0,3365,765,2525,110096,177851,4705
YhQAQhG1IkXJH7oLZMbM9w,Del Taco,252 Los Altos Pkwy,Sparks,NV,89431,39.5836527,-119.740935,1.5,60,1,1,1,2,1,1,0,1,1,1,0,0,2,0,15322,5782,5826,50233,63806,36189
vVm2qH6n4tWzN_qv6PBIVw,The Humming Bird Jerk house,"17631 Bruce B Downs Blvd, Unit F",Tampa,FL,33647,28.130283,-82.364992,3.5,32,1,0,0,1,0,0,0,1,0,0,0,0,1,0,25565,14474,7443,89270,120593,55034
y1HgVnt4K5owmYXC5yXLGg,Flambo Caribbean Restaurant,820 N Broad St,Philadelphia,PA,19130,39.9686973,-75.1606146,4.5,138,1,0,1,2,1,1,1,1,1,1,0,0,4,0,14431,4157,9196,88858,121662,24870
jBCgQ6nZDsMCWU7eaSxOpw,Whaley's Blazin BBQ,18213 N US Highway 41,Lutz,FL,33549,28.137927,-82.4626332,4.5,58,0,0,1,1,1,1,0,1,0,1,0,0,1,0,6883,3765,2188,71490,93450,16132
hfN3l0gJ-XszD1XFGNvA6A,Akira,720 Haddon Ave,Collingswood,NJ,8108,39.91576,-75.068382,3.0,40,1,0,1,2,1,1,1,1,0,1,0,0,4,0,7951,3630,3415,94851,111237,18045
I2CxrvM0BGH1svfxqGGD2g,M.L.Rose Craft Beer & Burgers - Melrose,"2535 8th Ave S, Ste 107",Nashville,TN,37204,36.1226231735,-86.7761365195,3.5,472,0,1,1,2,1,0,0,1,1,1,1,1,4,0,6080,2403,3122,89954,148770,12031
RrqRin8BYGrTlJbCDwtLzA,Wawa,3744 Spruce St,Philadelphia,PA,19104,39.9510885597,-75.1989988336,3.5,50,1,0,1,1,1,1,0,1,1,0,0,0,4,0,16508,2296,10575,28603,46430,51808
IgNDlyLERBwFGphgcC5VDQ,Cosi,1128 Walnut St,Philadelphia,PA,19107,39.9487514826,-75.1604487143,2.5,63,0,1,1,1,1,1,0,1,1,1,0,0,4,0,7823,1743,5771,60676,91522,14875
3swM60bulnut1d4AZti80Q,Rockabilly Grill,3700 N Oracle Rd,Tucson,AZ,85705,32.2739894,-110.9775344,3.5,37,0,1,1,1,1,0,0,1,1,1,1,1,3,0,24304,6115,12791,30885,42888,57521
4fUok5d5vgdQEb1Bzzg0rA,Olive Garden Italian Restaurant,1315 W Esplanade Ave,Kenner,LA,70065,30.0200051249,-90.2493493809,3.5,115,1,0,1,2,1,1,0,1,1,1,1,1,4,0,19229,8675,6958,57206,79639,51116
5cz1XbgalpQ89gsNQwneVQ,Portofino's Italian Kitchen,6742 Memorial Hwy,Tampa,FL,33615,27.9955961525,-82.5828616138,4.0,59,1,0,1,2,1,1,1,1,1,1,1,0,1,0,18028,7440,6638,53516,73973,43453
oRZzKWdyMQld6N_y4UWkAg,Terra Sur Cafe,"5330 Ehrlich Rd, Ste 103",Tampa,FL,33624,28.0819277157,-82.5391477434,4.0,316,1,1,1,2,1,1,0,1,0,1,0,0,4,0,15043,7421,5070,71668,89008,37457
biGIDbCGsAZJ-Y4zyV_b_A,Taza Mediterranean Grill,1076 East Brandon Blvd,Brandon,FL,33511,27.940439,-82.266787,4.5,65,1,0,1,1,1,1,0,1,1,1,0,0,1,0,22334,9691,7955,61149,79120,52003
L_sXNadtVHjxMw7Yhvkj9Q,Naoki Ramen,915 Race St,Philadelphia,PA,19107,39.955454,-75.1549,4.0,92,0,0,1,2,1,1,1,1,1,1,0,0,2,0,7823,1743,5771,60676,91522,14875
CjkxTRergWcYWb4SVW3gxw,Smokin' Out,3333 US Hwy 19,Holiday,FL,34691,28.20766,-82.740475,4.5,88,0,0,1,1,1,1,0,1,1,1,0,0,2,0,8946,3575,3913,40537,51692,21079
K5ffo0hkwhG33BDNQrJF6A,Slate Bleu Restaurant,100 S Main St,Doylestown,PA,18901,40.3072739,-75.1299259,4.0,105,0,1,1,3,1,0,1,1,1,1,0,1,4,0,10486,5469,3860,103626,133441,27598
oQYZ3j2H758y07p4RpCWug,August Rhodes Bakery,3073 N Campbell Ave,Tucson,AZ,85719,32.2627192,-110.9446296,4.5,89,1,1,1,2,1,0,0,1,1,1,1,0,4,0,18119,3526,12170,34013,48571,43989
HuDNHqKv9n1mWpe4BqCnwA,Minas Pizza,6151 Ridge Ave,Philadelphia,PA,19128,40.0352350987,-75.2167929785,3.0,54,1,0,1,1,1,1,0,1,0,1,0,0,2,0,16980,6799,8312,76854,95665,35239
H2nFgEFitRk7ltE8IRH0xA,Taco Bell,4647 West Kennedy Blvd,Tampa,FL,33609,27.944918,-82.523213,2.5,42,1,0,1,1,1,1,0,1,1,1,0,0,4,0,8497,3215,4322,85174,140410,15999
Y2NFeGtConx1qciSPKcRlA,Reginelli's Pizzeria - Closed,3244 Magazine St,New Orleans,LA,70115,29.9233127,-90.0875812,3.5,171,1,1,1,2,1,1,0,1,1,1,0,1,4,0,14847,5248,8000,77961,119724,31695
T9n_LqUUhC2b1ALhg57Y5Q,Texas Roadhouse,1545 Street Rd,Bensalem,PA,19020,40.09165,-74.93997,4.0,240,0,0,1,2,1,1,0,1,0,1,0,1,3,0,21379,10247,7290,70488,94744,55493
n1HOCV74TBVZdQdOUgp9xA,Moe's Southwest Grill,611 Berlin Cross Keys Rd,Sicklerville,NJ,8081,39.7357834,-75.0083576,2.0,50,0,0,1,1,1,1,0,1,1,1,0,0,4,0,16793,8832,4030,87407,104760,50589
NQSnr4RPUScss607oxOaqw,Chase's Hop Shop,7235 Rising Sun Ave,Philadelphia,PA,19111,40.0603863,-75.0845897,4.5,116,1,1,1,1,1,1,0,1,1,1,1,0,1,0,24355,9602,8521,51567,69823,63090
Ea2hPSFazxXITET4f6ZJhw,Beef 'O' Brady's,18421 N US Hwy 41,Lutz,FL,33549,28.140648,-82.461204,3.0,46,1,0,1,2,1,1,1,1,1,1,1,1,4,0,6883,3765,2188,71490,93450,16132
7utsfp2dXJ09j8Gb9hAIvA,Suzy-Jo Donuts,49 E 4th St,Bridgeport,PA,19405,40.1053723,-75.3404208,4.5,89,0,0,1,1,0,0,0,1,0,0,0,0,1,0,2034,517,1036,52370,81058,5127
joeRm-_7T0XTkMdKo2nbaA,Paola's Pizzeria,128 N Wayne Ave,Wayne,PA,19087,40.0451819,-75.388188,4.5,126,0,1,1,1,1,1,0,1,1,1,1,0,4,0,11749,7202,3478,144022,196760,32225
k0AO8X3VzWe_F4lkMb0eSg,The Cubby Hole,"37 E Main St, FL 1",Moorestown,NJ,8057,39.9647367,-74.9453088,4.5,202,0,1,1,2,1,1,0,1,1,0,0,0,4,0,7215,5014,1515,155780,216990,21090
V6Om7YZhlRQRU7WfuxHq8Q,Beck's Cajun Cafe,51 N 12th St,Philadelphia,PA,19107,39.9533224742,-75.1590000821,4.0,485,1,0,1,1,1,1,0,1,1,0,0,0,4,0,7823,1743,5771,60676,91522,14875
COclRBaXBjYpomS4syUmvg,Monon Coffee Company,920 E Westfield Blvd,Indianapolis,IN,46220,39.870878,-86.1422438,4.0,170,0,1,1,1,0,0,0,1,1,0,1,0,4,0,16879,6824,8390,77377,109485,34830
DOl21AqtT74dUZ3kvXNNcA,Golden Triangle,610 S 5th St,Philadelphia,PA,19147,39.9415201345,-75.1509702725,4.5,159,1,1,1,2,1,1,1,1,1,1,0,0,1,0,18239,6207,10326,86147,128426,36228
q40E5X_HdjeM_Kl1BE7Gtg,Orchid Thai Foods,17022 Palm Pointe Dr,Tampa,FL,33647,28.1184025,-82.3816714,4.5,62,0,0,1,2,1,1,1,1,1,0,1,0,4,0,25565,14474,7443,89270,120593,55034
FzelkV3vzxkRgBmVSIqALA,Edley’s,2392 S State Rt 157,Glen Carbon,IL,62034,38.7733254332,-89.9929298076,3.0,34,0,1,0,2,1,0,0,0,0,0,0,0,4,0,5528,2701,1784,84000,108462,13819
RzGr37s8p2ujVuN9of7ksQ,Panaderia La Conchita,4239 Nolensville Pike,Nashville,TN,37211,36.0744978515,-86.7254739712,4.5,44,0,0,1,1,1,1,0,1,1,1,0,0,4,0,29353,11228,13064,59075,75023,74755
isbeaPln-E0DdffLRsuFhw,Francisco's On The River,1251 River Rd,Washington Crossing,PA,18977,40.3136566,-74.8957796,4.0,109,1,1,1,3,1,0,1,1,1,1,0,0,4,0,1745,1340,276,190202,233722,4291
hTyJhpH7Bl5moMWQb4Sosg,Island Fin Poké,"6417 E County Line Rd, Ste 101",Tampa,FL,33647,28.169016,-82.356628,5.0,88,1,1,1,2,1,0,0,1,1,0,1,0,1,0,25565,14474,7443,89270,120593,55034
2quqM0ajKfTC_DV8sLAvxQ,Jon Smith Subs,"150 STen Mile Rd, Ste 140",Meridian,ID,83642,43.6033767164,-116.4330922049,3.5,39,1,0,1,2,1,0,0,1,0,0,0,0,1,0,17854,10414,5003,75708,95807,37008
IXv-g1iK3Hwsnxp0vT8OgA,Whataburger,1430 W River Rd,Tucson,AZ,85704,32.2979232056,-110.9969272166,2.5,71,1,0,1,1,1,1,0,1,1,1,0,0,2,0,15591,6394,7529,62544,91136,30929
PvT44WlqJLkUrCITo6AjRA,Breakfast Boutique Chestnut Hill,8630 Germantown Ave,Philadelphia,PA,19118,40.0771492176,-75.2087070076,3.0,151,1,0,1,2,1,1,1,1,1,1,0,0,4,0,4651,2076,2235,85766,148898,9808
7pxE4BFDibv6Q7MBbNOPQA,Los Rancheros,7125 Georgetown Rd,Indianapolis,IN,46268,39.8829229,-86.2435883,3.5,45,1,0,1,1,1,1,0,1,1,1,0,0,4,0,10741,3523,5809,52458,65237,24965
i6kNeNRrER8ocnpkBJ3wBA,Drexel Hill Pizza & Grill,4603 State Rd,Drexel Hill,PA,19026,39.9505756,-75.3120184,3.0,54,1,0,1,2,1,1,0,1,1,1,0,0,4,0,11854,5471,4066,73762,98812,30738
ziFtaIQdzQfFL79iLTq_zQ,Zac's Hamburgers,1301 E Macdade Blvd,Folsom,PA,19033,39.89378,-75.3197179,4.0,48,1,1,1,1,1,1,0,1,0,1,0,0,4,0,3007,1743,887,83642,97819,7777
uE3yzH2l1A_FYciu95EptA,Koi Sushi & Thai,102 Lumber Dr,Franklin,TN,37064,35.8994368,-86.8755453,4.0,157,1,1,1,2,1,1,0,1,1,1,0,0,4,0,21795,14497,4934,105342,134928,48118
yS0TsUzKBQlHQCZZeBrxww,Tortas El Guero,3818 N Highschool Rd,Indianapolis,IN,46254,39.8244846,-86.2709327,4.5,176,1,1,1,1,1,1,0,1,0,0,0,0,2,0,15672,4929,6951,46693,66661,38095
A_-Vv5oKZNqxsV69_7E2KQ,8th & Union Kitchen,801 N Union St,Wilmington,DE,19805,39.7524434,-75.5711769,3.5,177,1,1,1,2,1,1,1,1,1,1,1,1,2,0,15143,4301,6548,47300,63201,40937
N1ZXhAVzOzbyCBPEXTaUUw,Tandoor Authentic Indian Restaurant,106 S 40th St,Philadelphia,PA,19104,39.9551144,-75.202451,3.5,148,1,0,1,2,1,1,1,1,1,1,0,0,1,0,16508,2296,10575,28603,46430,51808
CE9wc-UtRIwiyo5i4QO1Og,CACi Wood-Fired Sicilian Grill,1592 E Riverside Dr,Eagle,ID,83616,43.687375,-116.334128,4.0,156,0,1,1,2,1,0,1,1,1,1,1,1,4,0,11230,7612,2444,89603,131663,22780
AaWmckcT3O1iQSAIUmzwUA,Basimo Beach Cafe,"1261 Gulf Blvd, Ste 120",Clearwater,FL,33767,27.9519956663,-82.829717,4.0,339,1,1,1,2,1,1,1,1,1,0,1,0,1,0,4049,2123,1706,87340,143679,8007
ryHhnOItSVPJB81Ty0Xb2g,Stonefire Tavern,10637 117th Dr N,Largo,FL,33773,27.8800115344,-82.786168,4.0,59,0,0,1,2,1,0,1,1,1,1,1,1,4,0,6831,3290,2592,59305,75018,16826
SdZvOwgALlSBt8A0DvVkuQ,Reno Tap Room,6139 S Virginia St,Reno,NV,89502,39.469099,-119.786907,4.0,45,1,1,1,2,1,1,0,1,1,1,0,1,4,0,18616,6344,8448,48782,65655,43566
_1jlbXWMxN50PQlaRpev7A,Reytas Filipino Cuisine,1490 Haddonfield Berlin Rd,Cherry Hill,NJ,8003,39.8801882243,-75.0052480303,4.5,79,1,1,1,2,1,0,1,1,1,1,1,0,4,0,10884,7816,2038,132441,162489,30629
UFpCraqzFBAhtZqmxmiWsA,Cat Therapy,"1213 State St, Ste L",Santa Barbara,CA,93101,34.4233018995,-119.7054707479,4.5,116,0,0,1,1,0,1,0,0,1,0,1,0,1,0,13296,4177,6819,62925,91126,31683
sway6xsRT_CUC6peK_Pyww,Bobby Hotel,230 4th Ave N,Nashville,TN,37219,36.1647114553,-86.7793040316,3.5,178,0,1,1,3,1,0,1,0,1,0,1,0,1,0,777,137,640,85463,87750,1162
nVI9wI9ujmrutJRMgHKSIg,Fiesta Maya Mexican Grill,1178 Baltimore Pike,Springfield,PA,19064,39.9142377,-75.3478566,4.5,130,0,0,1,1,1,1,0,1,1,1,1,0,4,0,8675,6088,1644,116394,133939,24459
_49FsmTfruZSTjxU4OwOsg,Taziki's Mediterranean Cafe - West End,3001 W End Ave,Nashville,TN,37212,36.1436547,-86.8135218,3.5,120,1,1,1,2,1,1,0,1,1,1,0,0,4,0,7149,2539,4043,71699,135689,20148
5l67axuAa5EmEV3lLuSa1Q,Smashburger,3300 Magazine St,New Orleans,LA,70115,29.9233129,-90.0877986,3.0,167,0,1,1,1,1,1,0,1,1,1,0,0,4,0,14847,5248,8000,77961,119724,31695
E9-k8aOCS2sSh9RYxvWU_A,Steppy's Sports Bar & Grill,2912 Swede Rd,East Norriton,PA,19401,40.1455977,-75.3182664,3.0,69,1,1,1,2,1,1,0,1,1,1,0,0,2,0,16282,5371,6383,58782,75523,41753
HJNRlG5nM4Bxy97PmNNaTQ,Aman's Indian Bistro,690 Main St,Harleysville,PA,19438,40.2867500339,-75.3982785895,4.5,38,0,0,1,2,1,1,1,1,1,1,1,0,1,0,9456,6287,2207,115748,138090,23765
AuTmUY381to83xPwovoERg,Wingstop,127 Gallatin Pike N,Madison,TN,37115,36.2649788207,-86.712538285,2.5,31,1,0,1,1,1,1,0,1,0,1,0,0,2,0,17024,4935,8154,46777,59429,37316
yzRC9gyhblU3a5hDct2S2Q,Hykel's Submarine Sandwich-Bar,2704 E County Line Rd,Ardmore,PA,19003,40.000783,-75.2964267,4.0,34,0,1,1,2,1,1,0,1,1,1,0,0,4,0,5665,2805,2250,105061,135760,12519
dERS4qwl9v-Gwft-Ug8APA,West Ave Grille Jenkintown Restaurant and Food Truck ,718 West Ave,Jenkintown,PA,19046,40.0957738,-75.1265509,4.0,277,1,1,1,2,1,1,0,1,1,1,1,0,4,0,7312,3914,2315,104193,142602,17809
Xjal8g4PsYinAfeQ8RWf4Q,Wasabi2,1375 Dilworthtown Crossing,West Chester,PA,19382,39.9037528,-75.5625925,4.5,78,1,1,1,2,1,1,1,1,1,1,1,0,2,0,20429,10896,7580,104232,143574,52388
JStjL-8mRZq4ov4uI1FaQ,Luberto's Brickoven Pizza,169 N Main St,Dublin,PA,18917,40.3753297,-75.208113,4.0,96,1,0,1,2,1,1,0,1,0,1,1,0,4,0,960,368,478,78971,87102,2158
X64JH5kXOjWsBCsGxmFSIw,Cinco de Mayo,14795 Lebanon Rd,Old Hickory,TN,37138,36.2197054,-86.5722192,3.5,35,1,1,1,1,1,1,0,1,1,1,0,0,4,0,9369,5142,2853,73710,84734,22191
NKplFLr1UebQxMLQAxALPQ,Tandoor & Tikka,5320 E 82nd St,Indianapolis,IN,46250,39.905788,-86.077582,3.5,78,1,0,1,1,1,0,0,1,1,0,1,0,1,0,9034,2918,5049,57053,80231,18546
0t14RIHl4wODz7LRiRRQ0Q,Salty Lime Cantina,1019 Florida Ave,Palm Harbor,FL,34683,28.0783137,-82.7666322,4.5,103,0,1,0,2,0,0,0,1,0,0,1,0,1,0,13380,7126,4340,70375,92555,31268
Z5LGSHEYjCUtKwjKotCNqA,Chinese Delight,735 W Lancaster Ave,Wayne,PA,19087,40.0477909,-75.409318,3.0,52,1,0,1,2,1,1,0,1,0,1,0,0,1,0,11749,7202,3478,144022,196760,32225
VZfc50XVwgdCecH4YbGNFg,EATS! American Grill,4502 S Dale Mabry Hwy,Tampa,FL,33611,27.902583,-82.505631,4.0,323,1,1,1,2,1,1,0,1,1,1,0,1,4,0,16269,6087,8484,66495,103942,29478
btycQr2eJqbNbArJdUxMmQ,New Golden Buffet,"700 Nutt Rd, Ste 701",Phoenixville,PA,19460,40.133113,-75.5342207,2.5,30,1,0,1,2,1,0,1,1,1,1,0,0,1,0,16443,8339,6022,104504,139548,40154
VOEN8f9WEysinBsLqbiVqg,Andrea's Restaurant,3100 19th St,Metairie,LA,70002,30.0073382,-90.1538509,2.5,218,1,1,1,3,1,1,1,1,1,1,0,1,1,0,8954,3438,4225,56361,81822,18879
USyJiGIvZ8fHjRVaVTu1Zw,Tony Jr's,118 S 18th St,Philadelphia,PA,19103,39.951157,-75.170714,3.0,71,1,0,1,1,1,1,0,1,0,1,0,0,4,0,15765,3571,11832,79110,134268,21908
N5QQdPac1cXwOHr-ePr90g,5th St. Bakehouse,953 W 5th St,Reno,NV,89503,39.5289273,-119.8280683,4.0,181,0,1,1,1,1,1,1,1,1,0,0,0,4,0,12469,4209,6739,54063,76117,27891
h2nBTqJVHAyltyeq7sZZ-w,Blueplate,47 S Main St,Mullica Hill,NJ,8062,39.7322517,-75.2240679,4.0,232,1,1,1,2,1,1,0,1,0,1,0,0,4,0,5467,3752,1067,140250,163201,15756
cEG1r9aRMJwmRQVkh7eiJg,Falls Deli,3492 Tilden St,Philadelphia,PA,19129,40.0128847,-75.1901845,4.5,31,1,1,1,1,1,0,0,1,1,0,0,0,1,0,4901,1547,2759,72328,97886,10975
LC-qVqvkMRmK_ed-SImCXQ,Salvatore's Trattoria & Pizzeria,221 N Henderson Rd,King of Prussia,PA,19406,40.0972098875,-75.3668700904,3.5,38,1,0,1,1,0,1,0,1,0,0,0,0,1,0,11438,5682,4700,97305,114751,23441
9dm_v79s9-pefMahqp1SkA,Loco Mexican Restaurant & Cantina,2205 N Delaware St,Indianapolis,IN,46205,39.7974826702,-86.1530939541,4.0,178,1,1,1,2,1,1,0,1,0,1,1,1,4,0,11857,3414,6243,52068,79951,25356
nFjk0xVI9fNiVN__5g-m8Q,Ichicoro Ane,"260 1st Ave S, Ste 100",Saint Petersburg,FL,33701,27.7701014,-82.6364594,4.0,264,1,0,1,2,1,1,1,1,1,1,1,1,3,0,9120,2230,6371,46786,87867,15014
TttFjRQ-8Iz8by4hsD7iOQ,Angelina's,743 S 8th St,Philadelphia,PA,19147,39.940221217,-75.1557966694,4.5,49,1,0,0,3,1,0,1,0,1,1,0,0,4,0,18239,6207,10326,86147,128426,36228
niEm9LkcLOrvsDzjXD6WpQ,New Orleans Hamburger & Seafood Co.,2515 B Manhattan Blvd,Harvey,LA,70058,29.8768457,-90.0482728,3.5,113,1,1,1,2,1,1,0,1,1,1,0,0,4,0,13844,5653,4888,49551,72216,39887
V4THIJk9uhoxL7f06fK5VA,Roundabout Catering,631 Dunn Cir,Sparks,NV,89431,39.528286,-119.734864,5.0,38,0,0,1,1,0,0,0,0,0,0,0,0,1,0,15322,5782,5826,50233,63806,36189
mGpLYGly9TmJsWiELfHXYg,Raz'z Restaurant,408 Sam Ridley Pkwy,Smyrna,TN,37167,35.986072,-86.549655,3.5,44,0,1,1,2,1,1,1,1,1,1,0,0,4,0,21579,10955,6308,69482,80715,49322
_cndcbuaqSRW5f-MeZasNw,Toyama Japanese Steak House,15532 Old Hickory Blvd,Nashville,TN,37211,36.040788,-86.7402801,3.0,142,0,0,1,2,1,1,1,1,0,1,0,0,4,0,29353,11228,13064,59075,75023,74755
iq0qAJ2Oc3myUTTMLseTXA,Lorenzo & Sons Pizza,27 North High St,West Chester,PA,19380,39.9604595,-75.6049474,3.5,71,1,0,1,1,1,1,0,1,0,1,0,0,4,0,20999,11647,7482,106738,136205,49534
WQ832PDnsDshhbQFm83ISg,Villagio Cinemas,11778 N Dale Mabry Hwy,Tampa,FL,33618,28.055282,-82.506247,3.0,285,1,0,1,2,1,1,1,1,1,1,1,0,1,0,12100,5819,4724,68245,106081,25570
di5ihAL9VWoctHelY8kLTQ,Gigi and Big R,38th and Spruce,Philadelphia,PA,19104,39.9512903,-75.1992768,4.0,81,1,0,0,2,1,0,0,1,0,0,0,0,4,0,16508,2296,10575,28603,46430,51808
TTsBa6e2qgIEkiFQfYLmYA,Twistee Treat - New Tampa,8810 New Tampa Blvd,Tampa,FL,33647,28.1440679511,-82.3539949058,3.5,70,0,1,1,1,0,1,0,1,1,1,1,0,4,0,25565,14474,7443,89270,120593,55034
zxpJ4Frr8Zoru-YaNzOxzw,China Spring,8165 Hwy 100,Nashville,TN,37221,36.0441354,-86.9579331,3.5,33,1,0,1,1,1,1,0,1,0,0,0,0,4,0,18140,8702,7396,85933,103715,36610
j5U5O3scMvPe67jzJcWFug,Zaxby's Chicken Fingers & Buffalo Wings,11619 W Hillsborough Ave,Tampa,FL,33635,28.0146920537,-82.6140054742,3.0,37,1,0,1,1,1,1,0,1,1,1,0,0,1,0,7240,3523,2325,71768,90470,15741
RCguFZat10TcbDMeeeM3IQ,El Pollo Loco,8030 S Virginia St,Reno,NV,89511,39.4555489488,-119.7781964498,3.0,73,1,0,1,1,1,1,0,1,0,1,0,0,4,0,11651,6956,3398,106071,157438,25011
Pb5agnsD9EdCl6yuZp2jJA,O Sole Mio,250 Catharine St,Philadelphia,PA,19147,39.9378287,-75.1482632,4.5,85,1,1,1,1,1,1,1,1,0,1,1,0,1,0,18239,6207,10326,86147,128426,36228
WMgB7_odx8hk3BFQAIZ5hQ,Thai Phooket Smyrna,"1890 Almaville Rd, Ste 100",Smyrna,TN,37167,35.9317024,-86.5338211,4.0,76,1,0,1,2,1,1,0,1,1,1,0,0,4,0,21579,10955,6308,69482,80715,49322
_uQEKHH0R5fxrYkLrUI9pQ,Gu Wei Noodles & Grill,"18101 Highwoods Preserve Pkwy, Ste 100",Tampa,FL,33647,28.1316091,-82.3691327,4.5,40,1,0,1,1,1,0,0,1,1,0,1,0,1,0,25565,14474,7443,89270,120593,55034
ilVGsC87BfopszGWw2qdXg,Spice Kitchen,2717 Ridge Pike,Trooper,PA,19403,40.1462266587,-75.3931311565,3.0,49,1,0,1,2,1,1,1,1,0,1,0,0,4,0,18879,9749,7193,85248,107812,44260
plobBsTtVUODb353xxFT_g,Sushi Rose,"2005 Sierra Highlands Dr, Ste 147A",Reno,NV,89523,39.5347847599,-119.8694408537,3.5,634,1,1,1,2,1,1,1,1,1,1,0,1,4,0,14986,7243,5881,82902,104737,31373
Bw0cpnfI-Y9QmjWzqS-oFg,Izumi,1601 E Passyunk Ave,Philadelphia,PA,19148,39.929738,-75.1633963,4.0,219,0,1,1,2,1,0,1,1,1,1,0,0,4,0,19493,7020,7959,60226,75581,49732
1w1H1kYUN60zpfdP-0qmGQ,Machismo Burrito Bar,8500 Henry Ave,Philadelphia,PA,19128,40.0626011,-75.2372078,3.0,30,1,0,1,1,1,1,0,1,1,1,0,0,1,0,16980,6799,8312,76854,95665,35239
0zH0l4Jbf-oove3cLvrFOg,Vecchia Osteria,20 Richboro Rd,Newtown,PA,18940,40.2280271,-74.9401945,4.0,359,1,1,1,2,1,1,1,1,1,1,0,0,4,0,11515,7555,3170,132214,176878,28825
7UxNDF6ZpabC3O0-Qbg3Xw,Yama Japanese Restaurant,1570 Rt 38,Lumberton,NJ,8048,39.981839,-74.7987789,3.0,52,0,0,1,2,1,1,1,1,0,1,0,0,1,0,4735,2504,1429,106581,130724,12495
fJNSx1WOo77TmP7Bl26w_g,Washington Crossing Inn,1295 General Washington Memorial Blvd,Washington Crossing,PA,18977,40.293684,-74.871315,4.0,144,1,1,1,2,1,0,1,1,0,1,1,1,4,0,1745,1340,276,190202,233722,4291
JOvNunKJlWhwJRwLmUR9ZA,Tryst Gastro Lounge,240 Beach Dr NE,St Petersburg,FL,33701,27.7745220251,-82.6327141048,3.5,295,1,1,1,2,1,0,1,1,1,1,1,1,4,0,9120,2230,6371,46786,87867,15014
ruFtZKwlJASx5BTk1dh5AQ,Wendy's,440 N Mccarran Blvd,Sparks,NV,89431,39.5380547,-119.734624,2.5,35,1,0,1,1,1,1,0,1,0,1,0,0,2,0,15322,5782,5826,50233,63806,36189
yBebHQPEvz8OtYKUO45QCw,Eden Korean Restaurant,1892 Marlton Pike E,Cherry Hill,NJ,8034,39.9110535,-74.9915109,4.5,32,0,0,1,2,0,1,1,1,1,1,0,0,4,0,7233,3665,2457,95248,114885,18151
b-EHLoRBtVgOpkv6-i1pSA,Huge Impact Restaurant,5110 W 38th St,Indianapolis,IN,46254,39.8239812,-86.247598,3.5,36,1,1,1,2,0,1,1,1,0,1,0,0,1,0,15672,4929,6951,46693,66661,38095
3VKE0_-KhU_qMYHxcyVcDg,Just To Serve You Too,5132 N 5th St,Philadelphia,PA,19120,40.029648,-75.1322934,3.0,68,1,0,1,2,1,1,1,1,1,1,0,0,2,0,24531,6690,7559,38996,53609,68104
2y_CdkxEOJEJGyJApfCYpA,Rode's Fireside Restaurant & Tavern,533 Kings Hwy,Woolwich Twp,NJ,8085,39.7532524,-75.3024859,3.5,104,0,1,1,2,1,1,1,1,1,1,0,0,4,0,6911,4464,1227,121645,136129,18737
bc3K8KvLkLNu_XU3RkeeeA,LeBuzz Caffe,"2930 N Swan Rd, Ste 127",Tucson,AZ,85712,32.260933,-110.891826,4.0,33,0,1,0,1,0,0,0,1,1,0,0,0,1,0,16384,4093,9558,37524,53990,32666
s3FRhtaNU8dt-mKkLKUQaQ,RuSan's Sushi and Seafood,505 12th Ave S,Nashville,TN,37212,36.1518970081,-86.7848066755,3.0,206,0,1,1,2,1,0,1,1,1,1,0,1,4,0,7149,2539,4043,71699,135689,20148
fKDV_dlDhXd7P5kZi97Kng,The Spot,272 S 20th St,Philadelphia,PA,19103,39.9483749,-75.1744886,3.0,80,1,0,1,1,1,1,0,1,0,1,0,0,1,0,15765,3571,11832,79110,134268,21908
JRoY9Mx2LghIki2Uo1SOJA,The Wine Tap,223 E Main St,Belleville,IL,62220,38.5137923,-89.9805554,4.5,93,0,1,1,2,1,0,1,1,1,1,0,0,4,0,7521,3097,3232,56486,69202,20504
m6KZGTxRb9_ZyDpB1G6O1Q,Freddy's Frozen Custard & Steakburgers,3725 W Orange Grove Rd,Marana,AZ,85741,32.3232068,-111.0442513,3.5,112,1,1,1,1,1,1,0,1,0,1,0,0,4,0,13989,5663,5499,63092,73330,32998
KPmFv_Ou6ddauV_gYauWzg,Taquería La Juquilita,5913 Morrow Rd,Nashville,TN,37209,36.1621286521,-86.8611215519,4.5,74,0,0,0,1,1,1,0,1,0,0,0,0,4,0,16513,5233,8829,61096,82024,35457
nteD5A6CKXZPqbR9EltQng,Super China Chinese Restaurant,8663 Little Rd,Port Richey,FL,34654,28.283355,-82.677826,4.0,54,1,0,1,1,1,1,0,1,1,1,0,0,1,0,8980,4506,2869,51036,70194,21716
Ktw3a8hXOKL00UCk_1nSEQ,Bully's Sports Bar & Grill,9725 Pyramid Hwy,Sparks,NV,89441,39.640527,-119.71245,2.5,126,1,1,1,2,1,1,0,1,1,1,0,1,2,0,4644,3253,854,109717,120941,11542
XgLrkmIqIrD_pl67lAovEQ,The Bourse,111 S Independence Mall E,Philadelphia,PA,19106,39.9498192516,-75.1486551501,2.0,35,1,1,1,2,1,1,0,1,1,1,1,0,2,0,7625,2113,5180,116368,162885,11740
sLgnx_WFCjEoPsS6NwU70Q,Le Peep,3036 N Eagle Rd,Meridian,ID,83646,43.6327829,-116.3523931,4.0,259,1,1,1,1,1,1,0,1,1,1,1,0,4,0,23299,14659,5346,79706,104342,47098
ZJC0ONdxmIlwidXd8E0fXg,BoomBozz Craft Pizza & Taphouse,8016 Hwy 100,Nashville,TN,37221,36.047064,-86.951448,3.5,57,1,0,1,1,1,0,0,1,1,0,1,1,1,0,18140,8702,7396,85933,103715,36610
zwfN21b6gN2XGjNG6MYNzQ,Wolfgang Puck Express,2500 S High School Rd,Indianapolis,IN,46241,39.7166926914,-86.2978263572,2.0,70,0,0,1,2,1,1,0,1,1,0,0,0,4,0,10655,4187,3329,42342,54996,30670
XyGRDrgCK0z4CiA6nhwEaw,Persian Room Fine Dining,"9290 N Thornydale Rd, Ste 100",Tucson,AZ,85742,32.3750163,-111.0463201,4.5,258,1,0,1,2,1,1,1,1,1,1,0,1,1,0,11154,5970,3226,80808,98653,25212
mygIk3l_ShNNB-QbWlrRyg,Zydeco's,7010 Hwy 23,Belle Chasse,LA,70037,29.8777671,-90.0173044,3.5,161,0,0,1,2,1,1,0,1,0,1,1,0,4,0,5665,3309,1251,71956,97678,15590
BiBwdFcG0ynK50_g7zJTOg,Chopt Creative Salad Co.,"211 Franklin Rd, Ste 160",Brentwood,TN,37027,36.032004,-86.79085,3.5,135,1,1,1,2,1,1,0,1,1,1,0,0,4,0,20608,14144,4938,133254,189233,49035
Ryt1Fhgz7sixMQSJiLyP_g,Zocalo,3600 Lancaster Ave,Philadelphia,PA,19104,39.9584222,-75.1938661,2.5,59,0,1,1,2,1,1,1,1,0,1,0,1,4,0,16508,2296,10575,28603,46430,51808
B6qHZCAs7Nka-1zdjCzAIQ,Butter's Soul Food,2730 W Girard Ave,Philadelphia,PA,19130,39.9741307,-75.1815903,3.0,77,1,1,1,2,1,1,0,1,0,0,0,0,1,0,14431,4157,9196,88858,121662,24870
pEYs1oVeJ6YM2SG5WEr5Pg,Burger Theory,8555 Stansted Dr,Indianapolis,IN,46241,39.675040703,-86.3103263801,4.0,86,1,1,1,2,1,1,0,1,1,1,1,0,4,0,10655,4187,3329,42342,54996,30670
3-6BB10tIWNKGEF0Es2BA,The 81 Hong Kong Cafe,"625 E Wetmore Rd, Ste 109",Tucson,AZ,85705,32.2885403,-110.9631443,4.0,133,1,0,1,2,1,0,1,1,1,0,1,0,1,0,24304,6115,12791,30885,42888,57521
78e90HO_R40SyzBr4fnHSA,Primanti Bros - Indianapolis,49 W Maryland St,Indianapolis,IN,46204,39.7655226364,-86.1597495695,3.5,221,1,1,1,2,1,1,0,1,1,1,0,1,4,0,4582,498,3999,73281,100517,5125
zhFKtchGIpRTfOZSpm4Zvg,Capriotti's Sandwich Shop,117 E Swedesford Rd,Exton,PA,19341,40.0361194,-75.6286593294,3.5,38,1,1,1,1,1,1,0,1,0,1,1,0,4,0,7825,4563,2392,107338,135072,16709
cLlBDZxYJ1dt1JgMuZnXew,Olly,700 S 5th St,Philadelphia,PA,19147,39.9408776,-75.1511064,4.0,51,0,0,1,1,1,1,0,0,0,0,0,0,4,0,18239,6207,10326,86147,128426,36228
MMRRS6YhVRx_iN5-JhMRYg,Han Dynasty,3711 Market St,Philadelphia,PA,19104,39.9567105161,-75.1971027811,4.0,783,1,1,1,2,1,1,1,1,0,1,0,1,4,0,16508,2296,10575,28603,46430,51808
F_wIC6i5y4zdQyp99R7PdQ,Blueberry Hill Pancake House,7803 E Washington St,Indianapolis,IN,46219,39.7723413,-86.0279803,3.5,101,1,0,1,1,1,1,1,1,1,1,0,0,4,0,15857,5109,7955,42749,56740,33930
icp_IKE9zIkAqAucyS1vTA,Hakka Beef House,927 Race St,Philadelphia,PA,19107,39.9554945,-75.1552563,4.5,33,1,0,1,2,1,1,0,1,1,1,0,0,1,0,7823,1743,5771,60676,91522,14875
JVekj-AqcU46mg7rzN_nOg,Oceanos Restaurant,222 Haddon Ave,West Berlin,NJ,8091,39.8130665,-74.9442129,3.5,32,1,0,1,2,1,1,1,1,1,1,0,0,1,0,2068,990,686,75985,98450,5357
g_nLH7QGP3_l1eE-7JWhwA,Smees Alaskan Fish Bar & Marketplace,5635 Meadowood Mall Cir,Reno,NV,89502,39.4742257,-119.7795102,4.5,97,0,1,1,2,1,1,0,1,0,1,1,0,4,0,18616,6344,8448,48782,65655,43566
Rl7W2JPAUWFo2ZZdVeGAWA,Koffee Korner Cafe,201 N Broad St,Lansdale,PA,19446,40.2419927,-75.2829764,3.5,59,0,0,0,1,1,1,0,1,0,1,0,0,4,0,22647,12428,7315,87083,118037,55138
A0F-h3xJm_6gHDKcDQwSrQ,Capogiro Gelato,3925 Walnut St,Philadelphia,PA,19104,39.9541715545,-75.2013800841,4.0,252,0,1,1,2,1,1,0,1,1,1,0,1,2,0,16508,2296,10575,28603,46430,51808
ymoEdJB5NE56sWw74uyX7A,Sushi Bar,911 Broad Ripple Rd,Indianapolis,IN,46220,39.8694324,-86.1425102,4.0,346,1,1,1,2,1,1,1,1,1,1,1,1,4,0,16879,6824,8390,77377,109485,34830
4-y4Jj8hNuVIFktoYnm3-Q,Bella Pizzeria,3367 E 86th St,Indianapolis,IN,46240,39.9108087,-86.1081565,3.0,66,1,1,1,1,1,1,0,1,1,1,0,0,1,0,10165,3497,6021,56744,97368,18731
3y61A28PQDZ4weeeTRfIlA,Burger Study,28 W Georgia St,Indianapolis,IN,46225,39.7643833,-86.1588649,4.0,441,1,1,1,2,1,1,1,1,1,1,0,1,4,0,2163,516,1141,35694,47294,7319
ugSVRAKO6mxvsrElFg8USw,México Lindo,700 Moore St,Philadelphia,PA,19148,39.926402,-75.1575374,4.5,73,1,0,0,1,1,1,0,1,1,1,0,0,1,0,19493,7020,7959,60226,75581,49732
mpVZG520RL-K1YeQi55ZPg,The Blarney Stone,3929 Sansom St,Philadelphia,PA,19104,39.9548253,-75.2009783,3.5,46,1,0,1,1,1,0,0,1,0,1,0,0,4,0,16508,2296,10575,28603,46430,51808
Yh4OgbXQSpQ_ycK_FmNiGw,Suis Generis,3219 Burgundy St,New Orleans,LA,70117,29.9649909096,-90.0426163126,4.0,100,1,1,1,2,1,0,0,1,0,1,0,0,4,0,11998,2259,7592,29663,52476,23389
U8jSYiECyAljqTL2U1ERGw,Bamboo House of Noodle Soups,"Marketplace Shopping Ctr, 1502 W Chester Pike",West Chester,PA,19382,39.965781755,-75.5275749265,4.0,52,0,0,1,2,1,1,1,1,0,1,0,0,1,0,20429,10896,7580,104232,143574,52388
utReYPKNKwb15UytLOr-Xw,Newtown Bagel,31 Swamp Rd,Newtown,PA,18940,40.2289953,-74.9410147,3.0,63,1,0,1,1,1,0,0,1,1,0,1,0,1,0,11515,7555,3170,132214,176878,28825
fsPqRDDG2igV63nP89xWUA,Concord Steaks,257 Wilmington W Chester Pike,Chadds Ford,PA,19342,39.852706,-75.539011,3.5,33,1,1,1,1,1,1,0,1,1,1,1,0,1,0,8064,4556,3012,112373,147032,18099
jAGzl-N2GINB_wK87bjoVA,RJS Tacos & Burritos,1024 N Shadeland Ave,Indianapolis,IN,46219,39.7826835,-86.0464533,4.0,42,1,0,1,1,0,1,0,1,1,1,0,0,1,0,15857,5109,7955,42749,56740,33930
iDGohK_mkqnAfLeWC4P4TQ,51st Deli,1314 51st Ave N,Nashville,TN,37209,36.1619072,-86.84887,4.5,164,1,1,1,1,1,1,0,1,0,1,1,0,4,0,16513,5233,8829,61096,82024,35457
Ahwed4jRpXhmSCkcLL7FOw,Moe's Southwest Grill,101 Creekside Xing,Brentwood,TN,37027,36.0371204933,-86.7983664088,3.0,48,1,1,1,1,1,1,0,1,1,1,1,0,4,0,20608,14144,4938,133254,189233,49035
NcO-pWiZmNM5zBg8H9zB6Q,La Tavola Ristorante Italiano,114 Front St,Smyrna,TN,37167,35.9811081,-86.5193323,4.0,191,1,1,1,2,1,1,1,1,1,1,0,0,4,0,21579,10955,6308,69482,80715,49322
yH0ON2BtV52JXxWdZy7Psg,Flat Tire Diner,4700 Old Hickory Blvd,Old Hickory,TN,37138,36.202711,-86.621012,4.5,71,0,0,1,2,1,1,0,1,0,0,1,0,1,0,9369,5142,2853,73710,84734,22191
tiEkH6TbOQMZHRo46rmdTA,Denim byob,116 King's Hwy E,Haddonfield,NJ,8033,39.896842,-75.033414,4.5,149,1,1,1,2,1,0,1,1,1,1,1,0,4,0,6003,3701,1830,128134,178029,16261
OyHbS1sJ4CguExlWa-XWDg,Red Lobster,3020 N Causeway Blvd,Metairie,LA,70002,30.0074264,-90.155475,2.5,122,1,0,1,2,1,1,1,1,1,1,1,0,2,0,8954,3438,4225,56361,81822,18879
LwVhbEy_SHse2G_P2JXMyg,Mo' Bettahs Hawaiian Style Food,3223 E Louise Dr,Meridian,ID,83642,43.6028922,-116.3539042,4.0,109,1,0,1,1,0,0,0,1,0,0,1,0,1,0,17854,10414,5003,75708,95807,37008
K8b2MQ5Az59-nzvqUfjJEQ,The Farm and Fisherman,1120 Pine St,Philadelphia,PA,19107,39.944935,-75.1606759,4.0,234,0,0,1,3,1,0,1,0,0,0,0,0,4,0,7823,1743,5771,60676,91522,14875
D_sIoGDRaLJv0DAIc46MMA,Ruby Slipper Cafe,2700 Metairie Rd,Metairie,LA,70001,29.9793408,-90.1520954,4.5,347,1,1,1,2,1,1,0,1,0,1,1,1,4,0,16638,6475,7575,56724,74980,37996
zBHAoHU-SD7wECkKpTGImg,First Watch,3691 Tampa Rd,Oldsmar,FL,34677,28.0449208,-82.68053,4.0,93,1,1,1,2,1,0,1,1,1,1,0,0,4,0,8566,4188,2925,69861,100486,20842
kgywEv9dQHcvEAu741y3RQ,New Bamboo Garden,421 Hurffville-Crosskeys Rd,Sewell,NJ,8080,39.7338119,-75.0638068,4.0,34,1,0,1,1,0,1,0,0,0,0,0,0,1,0,13425,8353,3116,107566,127108,37433
gu9H6XoryCn07BfPsSdeSw,The Sweet Taco,781 W Sproul Rd,Springfield,PA,19064,39.9357331,-75.3516435,3.0,153,0,0,1,1,1,1,1,1,1,1,0,1,2,0,8675,6088,1644,116394,133939,24459
hXBeTdtREKEMT2FMmzRPhQ,Steak & Pasta House,38 E 2nd St,Reno,NV,89501,39.5267893,-119.8125674,4.0,59,0,0,1,2,1,1,1,1,0,1,0,0,1,0,2776,332,2213,44393,55619,4252
LktIfbmd3k0kDiWibGw7DQ,Stacked Pickle - 96th Street,4705 E 96th St,Indianapolis,IN,46240,39.9254897722,-86.0890453372,3.0,67,1,1,1,2,1,1,0,1,1,1,1,1,3,0,10165,3497,6021,56744,97368,18731
JeoIxdzt5E3QXT1KHXR2oA,JB'S Island Cafe,432 Poinsettia Ave,Clearwater,FL,33767,27.9796975,-82.8266376,4.0,37,0,1,1,1,1,1,0,1,1,1,0,0,3,0,4049,2123,1706,87340,143679,8007
51pgAUQ6aIdZEfSXiG39VQ,Prodigy Burger & Bar,"8923 S Meridian St, Ste A1",Indianapolis,IN,46217,39.6361025,-86.1576094,3.0,48,1,1,0,1,0,0,0,1,0,0,0,0,1,0,12797,7168,3973,68063,85292,29358
qq4Zc5y76vfCxQQy4CLfrA,The Casino Grill,38 E 2nd St,Reno,NV,89501,39.5267893,-119.8125674,4.0,38,0,1,1,1,1,1,0,1,0,0,0,0,1,0,2776,332,2213,44393,55619,4252
s4VzQaUCrgwPuViQYOqC2w,Ranch House Restaurant,7706 W Hillsborough Ave,Tampa,FL,33615,27.9962535,-82.5670403,3.5,39,1,0,1,1,1,1,1,1,1,1,1,0,4,0,18028,7440,6638,53516,73973,43453
xkYOPbA8AL4jcQIN3xveoQ,The Big Cheezy,3232 Williams Blvd,Kenner,LA,70065,30.0154233,-90.2392351,4.0,154,1,0,1,1,1,1,0,1,1,1,1,0,2,0,19229,8675,6958,57206,79639,51116
lDodrtH6kNgSCYpxr_E3-A,McAlister's Deli,"2701 Airline Hwy, Ste T",Metairie,LA,70001,29.9754518653,-90.1512057111,2.5,70,1,1,1,2,1,1,0,1,1,1,1,0,2,0,16638,6475,7575,56724,74980,37996
_Co6_3dVnerzFLSe2s4W9Q,Bobby Chez Crabcakes,1990 Marlton Pike E,Cherry Hill,NJ,8003,39.8996609,-74.9532997,3.5,30,1,1,1,1,0,1,0,1,0,0,0,0,1,0,10884,7816,2038,132441,162489,30629
ZpXZgnBrNodHH8pKpOK_Kg,Jesse's Steak and Seafood,524 W Brandon Blvd,Brandon,FL,33511,27.9381358,-82.2920736,4.0,267,0,0,1,2,1,1,0,1,0,1,0,1,4,0,22334,9691,7955,61149,79120,52003
PxEiXqMAzzvp8GFlb5EoLg,Grain Exchange,7152 Germantown Ave,Philadelphia,PA,19119,40.059508,-75.190838,3.5,239,1,1,1,2,1,1,0,1,0,1,1,1,2,0,11846,4707,4730,73671,111458,27035
5pCDh3Tq3WzQau79hfJbsA,Brooklyn Pizza & Cafe,2428 Nolensville Pike,Nashville,TN,37211,36.1193788,-86.748865,3.5,69,1,1,1,3,0,1,0,1,1,1,1,0,1,0,29353,11228,13064,59075,75023,74755
tUDZnYQe7aD2VU3Syia_RQ,The Nations Bar & Grill,705 51st Ave N,Nashville,TN,37209,36.1556569,-86.849056,3.5,45,0,1,1,2,1,0,0,1,1,1,1,1,4,0,16513,5233,8829,61096,82024,35457
j8NhrBzy1op0BfVGdSOiXQ,The Creperie Cafe,"7709 W Overland Rd, Ste 130",Boise,ID,83709,43.588937,-116.278166,3.5,131,1,1,1,1,1,1,0,1,1,1,1,0,4,0,21787,12577,6435,74941,93384,50034
UCMSWPqzXjd7QHq7v8PJjQ,Prep & Pastry,2660 N Campbell Ave,Tucson,AZ,85719,32.25552801,-110.94349236,4.5,2126,1,1,1,2,1,1,0,1,1,1,1,0,4,0,18119,3526,12170,34013,48571,43989
1_hDCN3iioFR3XnUr32ZtA,Dooners,21 3rd St N,Saint Petersburg,FL,33701,27.7718011011,-82.6369077739,3.5,109,1,1,1,1,1,1,0,1,1,1,0,0,4,0,9120,2230,6371,46786,87867,15014
YKpZ2Ml0NZoYZ5eb3r_Cdg,Valentine's Restaurant,205 S State St,Freeburg,IL,62243,38.4242058,-89.9087975,4.0,30,0,0,1,2,1,1,1,1,1,1,0,0,4,0,2255,1462,530,76653,92856,5910
sy85YVw1d56ABqhXF-Y14g,Godavari,5012 Thoroughbred Ln,Brentwood,TN,37027,36.0362772,-86.7892595,3.5,32,1,0,1,2,1,1,0,1,1,1,0,0,1,0,20608,14144,4938,133254,189233,49035
OIES_WhdNux3PmvSuPM-8Q,Toki Sushi,14313 N Dale Mabry Hwy,Tampa,FL,33618,28.0774196,-82.5059947,4.0,106,0,0,1,2,1,1,1,1,0,1,0,0,1,0,12100,5819,4724,68245,106081,25570
_zU8uJthn3o5swP0LmfuqQ,Dots Diner - Williams Blvd.,2239 Williams Blvd,Kenner,LA,70062,29.997378,-90.241623,4.5,234,1,0,1,1,1,1,0,1,1,1,0,0,4,0,5681,2119,1975,43788,58138,17095
w0zKpH49tW6Y-b6ZJzKMFw,Chuck's Alibi,7301 Oxford Ave,Philadelphia,PA,19111,40.061417,-75.0833451,2.0,76,1,0,1,2,1,0,1,1,1,1,0,0,4,0,24355,9602,8521,51567,69823,63090
zQ4yPiqoyMtoohGpEip7zw,The Growler Guys,"7530 Longley Ln, Ste 106",Reno,NV,89511,39.4562814,-119.7774657,4.0,75,1,1,1,2,1,1,0,1,1,1,1,1,4,0,11651,6956,3398,106071,157438,25011
ZYlDRSuhC-97FyqsPg1KCA,Pacos Tacos Metairie,4726 Veterans Memorial Blvd,Metairie,LA,70006,30.004915,-90.188874,4.5,160,1,1,1,1,1,0,0,1,1,1,1,0,1,0,6223,2964,2064,67321,82738,15703
_ReMedGR8eDM5AgdRK0jCw,Shorty's Breakfast & Gourmet Deli,"1261 Gulf Blvd, Ste 125",Clearwater,FL,33767,27.9519833,-82.829696,4.5,68,0,1,1,1,1,1,1,1,1,1,1,0,1,0,4049,2123,1706,87340,143679,8007
v5T1Q21TT1_S_aY_G8Mf-g,Mr. Baja Fish,405 E Wetmore Rd,Tucson,AZ,85705,32.2873778,-110.9657056,4.0,69,1,0,1,1,0,1,0,1,0,1,0,0,1,0,24304,6115,12791,30885,42888,57521
GgcvRnt5_z3NEC0D6vNncQ,Cafe Buenos Aires,1316 State St,Santa Barbara,CA,93101,34.424829,-119.706032,3.5,56,0,1,1,2,1,0,1,0,0,1,0,1,4,0,13296,4177,6819,62925,91126,31683
Y70T1eClNnw_PlBkr1IHqg,Panda Express,1606 W Valencia Rd,Tucson,AZ,85746,32.1342676,-110.9998502,1.5,44,1,1,1,1,0,1,0,1,1,1,0,0,1,0,15602,6649,3652,54413,64170,43057
TghRoAMx43V-9l7mH-SENg,Crabby Bills Clearwater Beach,37 Causeway Blvd,Clearwater Beach,FL,33767,27.9770768,-82.8277495,3.5,408,0,1,1,2,1,1,0,1,0,1,0,1,2,0,4049,2123,1706,87340,143679,8007
eqNutOMnPqKa9QDAY6KfEw,J'aime French Bakery,212 S 12th St,Philadelphia,PA,19107,39.948081,-75.1608093,4.5,310,1,1,1,2,0,1,0,1,1,0,0,0,4,0,7823,1743,5771,60676,91522,14875
P7oAQxDu8rapFn8QY0nmyA,LesbiVeggies,112 W Merchant St,Audubon ,NJ,8106,39.893852132,-75.0719857,4.5,52,0,0,0,1,0,0,0,1,1,0,0,0,1,0,3878,1567,1543,82500,95764,9874
UGebrYgNZrMzbGbcI01JWA,Hiccups & Churroholic,13030 N Dale Mabry Hwy,Tampa,FL,33618,28.0645829885,-82.5057124,4.5,108,1,1,0,2,0,0,0,1,0,0,0,0,1,0,12100,5819,4724,68245,106081,25570
L3u4I6wHtwMQJ-ZtvfrkkQ,McDonald's,3640 W Tangerine Rd,Marana,AZ,85742,32.424583,-111.043025,1.5,36,1,1,0,1,0,0,0,1,1,1,0,0,4,0,11154,5970,3226,80808,98653,25212
EjFp57Nd4bVgb5GNn-XnuA,Tokyo,7911 W Hillsborough Ave,Tampa,FL,33615,27.9969683,-82.5701668,3.5,155,1,1,1,1,1,1,0,1,1,1,1,0,1,0,18028,7440,6638,53516,73973,43453
9dGzGbNKLMP0_wOqI5GffQ,Jasmine Thai,1947 Wlumsden Rd,Brandon,FL,33511,27.9213164796,-82.3168221354,4.0,195,1,0,1,2,1,1,1,1,0,1,0,0,1,0,22334,9691,7955,61149,79120,52003
AmnnsJq4Pz1jJUFzHwtsOA,Chipotle Mexican Grill,"1560 E 86th St, Ste C",Indianapolis,IN,46240,39.912878,-86.134275,3.0,65,1,1,1,1,1,1,0,1,1,1,0,0,4,0,10165,3497,6021,56744,97368,18731
CS_GzUYlEPa6QHTRY224wQ,LongHorn Steakhouse,690 S Trooper Rd,Norristown,PA,19403,40.1274771937,-75.4040751479,3.5,104,0,0,1,2,1,1,0,1,1,1,0,0,4,0,18879,9749,7193,85248,107812,44260
a7_KZUJknqRA4DHQ3j9ofA,Slowdown Grillpub,4700 Pennell Rd,Aston,PA,19014,39.8594186,-75.4271676,3.0,60,1,0,1,2,1,1,0,1,1,1,0,1,4,0,7688,4174,2251,89468,109389,21206
Y2jDVmMpRzQRg6HkNvQc8g,Smyrna Cafe,1666 Lee Victory Pkwy,Smyrna,TN,37167,35.9416454189,-86.5283457257,4.0,184,0,0,1,2,1,1,1,1,1,1,1,0,1,0,21579,10955,6308,69482,80715,49322
5m3ND7lNNd6zo-bNQGoXhQ,Three 12 Sport Bar and Lounge,312 Market St,Philadelphia,PA,19106,39.9499452,-75.146352,2.5,33,1,1,1,2,1,0,1,1,1,1,1,1,4,0,7625,2113,5180,116368,162885,11740
c6GTImF01z981_BNJIye2g,Chef JJ's Back Yard,1040 Broad Ripple Ave,Indianapolis,IN,46220,39.870073,-86.139953,4.5,41,0,1,1,3,1,0,1,0,1,1,0,0,4,0,16879,6824,8390,77377,109485,34830
0z-unL2UdJn40PYiou2bnQ,Manny's Sicilia Pizza,17 W Broad St,Palmyra,NJ,8065,40.0039604,-75.0225524,3.5,37,1,0,1,2,1,1,0,1,1,1,0,0,4,0,2761,1236,966,73212,88124,7398
Tl24lMv2aCuLs4u45NquJQ,Lamberti's Tutti Toscani,1491 Brace Rd,Cherry Hill,NJ,8034,39.8892184,-75.0168699,4.5,163,1,1,1,2,1,1,0,1,0,1,0,0,4,0,7233,3665,2457,95248,114885,18151
oBhJuukGRqPVvYBfTkhuZA,Square 1682,121 S 17th St,Philadelphia,PA,19103,39.9508011,-75.1686108,3.5,385,1,1,1,2,1,0,1,1,1,1,1,1,4,0,15765,3571,11832,79110,134268,21908
WLLmkBjtN8mr2vWTU8aaCQ,sweetgreen,"350 Mall Blvd, Ste 3035",King Of Prussia,PA,19406,40.0888477047,-75.3892213351,3.5,91,1,0,1,2,1,1,0,1,1,1,0,0,4,0,11438,5682,4700,97305,114751,23441
kgeiJzWSiXPnf-3wx7LHIQ,Panera Bread,3421 N Eagle Rd,Meridian,ID,83646,43.6361060294,-116.3547924344,3.0,81,1,1,1,1,1,1,0,1,1,1,0,0,4,0,23299,14659,5346,79706,104342,47098
eL673KqwAGpJQ4z-MAaZ7Q,Kokoro Ramen,1473 Brace Rd,Cherry Hill,NJ,8034,39.8893026822,-75.0162957925,4.5,62,1,0,1,1,1,0,0,1,0,0,1,0,1,0,7233,3665,2457,95248,114885,18151
04UD14gamNjLY0IDYVhHJg,Dmitri's,795 S 3rd St,Philadelphia,PA,19147,39.9380132,-75.1481307,4.0,273,0,0,0,2,1,0,0,1,0,0,0,0,4,0,18239,6207,10326,86147,128426,36228
7sKfrJmjG6unAQeWdQUe2w,Franzone's Pizzeria & Restaurant,114 Levering St,Philadelphia,PA,19127,40.026465,-75.2244958,3.5,110,1,1,1,1,1,1,0,1,1,1,1,0,1,0,2678,639,1962,74936,104604,5913
6kAXOzE7fqaBZINQV_-_mg,Kien Giang,5845 Charlotte Pike,Nashville,TN,37209,36.148333,-86.862353,3.5,326,1,0,1,1,1,1,0,1,0,1,1,0,4,0,16513,5233,8829,61096,82024,35457
WO5nr-4sjVs506BdCLL0aA,Kuchi Sushi & Hibachi,9206 Anderson Rd,Tampa,FL,33634,28.030876,-82.541377,4.0,319,1,0,1,2,1,1,1,1,1,1,0,0,4,0,7544,3838,2422,60237,83180,20225
lTVHJAvtFQbQb6cPstEXyA,China Bowl & State Street Cafe,440 E Ortega St,Santa Barbara,CA,93101,34.4235663,-119.6925452,2.0,61,1,1,1,2,1,1,1,1,1,1,0,0,4,0,13296,4177,6819,62925,91126,31683
QExWORi8kxwQGdXlFXRc-Q,Frank's Diner,"16103 US 19, 15925 US 19",Hudson,FL,34667,28.391744,-82.667798,3.0,30,0,0,1,1,1,1,0,1,1,1,0,0,1,0,15736,6186,7334,43363,56397,32144
aq26RY75PlTNsviW6wUC9A,Hooters,7280 E Broadway Blvd,Tucson,AZ,85710,32.2205997635,-110.8379714749,3.5,109,1,1,1,2,1,1,0,1,1,1,0,1,2,0,24780,8081,12342,46055,59440,54439
zsvmEbkd-K9K2DAAKqiEQ,Salty's Island Bar & Grille,437 S Gulfview Blvd,Clearwater Beach,FL,33767,27.969764,-82.829336,4.0,599,1,1,1,2,1,1,1,1,1,1,1,1,2,0,4049,2123,1706,87340,143679,8007
7R_LxvRPu3qMc8xMhP0POw,Mo's a Place For Steaks,15 E Maryland St,Indianapolis,IN,46204,39.7654422471,-86.1573568352,4.5,42,0,0,1,4,1,0,1,1,1,1,1,0,4,0,4582,498,3999,73281,100517,5125
YgMZm_alGFUeQO4hz9X9VA,Earl's New American,2400 Street Rd,New Hope,PA,18938,40.3475793,-75.0298548,3.5,135,0,1,1,2,1,1,1,1,1,1,1,1,4,0,6044,3534,1936,118877,191503,13989
m1EGAIfFEN9nG2_bJqnAcQ,Sushi Minato,5085 S McCarran Blvd,Reno,NV,89502,39.4770062,-119.7825078,4.0,231,0,0,1,2,1,1,1,1,1,1,0,0,4,0,18616,6344,8448,48782,65655,43566
5XXFFeHDa-lb-OcXGDKXpg,Bartaco,"160 N Gulph Rd, Ste C1100",King of Prussia,PA,19406,40.0883652258,-75.3884107669,4.5,313,1,1,1,2,1,1,0,1,1,1,1,1,4,0,11438,5682,4700,97305,114751,23441
4ib9kGHlwqWPalWjh-dZhQ,Yama-Taiyo Japanese Cuisine & Sushi Bar,660 Alderman Rd,Palm Harbor,FL,34683,28.09319,-82.771565,4.0,49,1,0,1,2,1,1,1,1,0,1,0,0,1,0,13380,7126,4340,70375,92555,31268
5R6YO6K9PkthkTbXqV9slQ,Sakura Japanese Restaurant,4713 Kirkwood Hwy,Wilmington,DE,19808,39.7229310921,-75.6620611,4.0,86,1,0,1,2,0,1,0,1,0,1,0,0,4,0,14680,7449,4913,82113,103780,38442
wn1rS1Ga9xZ1BIMffnJW5A,Applebee's Grill + Bar,455 Berlin - Cross Keys Rd,Sicklerville,NJ,8081,39.748982,-74.990204,2.5,39,1,0,1,2,1,1,0,1,1,1,0,1,3,0,16793,8832,4030,87407,104760,50589
rLSnt_I-JBH6f1kQ2j0uFg,Aston Pizza Company,600 Convent Rd,Aston,PA,19014,39.8723666123,-75.444536709,3.5,34,1,1,1,1,1,1,0,1,1,1,0,0,4,0,7688,4174,2251,89468,109389,21206
H3p3b8nbB3OtIfQyQGKDkg,Eet Gud Bakery,2113 Hamilton Ave,Trenton,NJ,8619,40.228034,-74.709329,4.5,78,1,0,1,1,0,1,0,1,1,0,1,0,4,0,9031,4683,3028,83589,99047,22723
AY1SyySRyTnBwBdf7qfGxQ,Citi Market place,1318 Walnut St,Philadelphia,PA,19107,39.9489105,-75.1630155,4.5,86,0,0,1,2,1,1,0,1,0,0,0,0,1,0,7823,1743,5771,60676,91522,14875
9XpU6r6ATXSWYfbU7kibaQ,Passero's Coffee Roasters,1601 John F Kennedy Blvd,Philadelphia,PA,19103,39.9542012,-75.1674658,4.5,91,0,0,1,1,1,0,0,1,1,0,1,0,3,0,15765,3571,11832,79110,134268,21908
8QJTzIaR5FceGds8HBSIig,Barrio Brewing,800 E 16th St,Tucson,AZ,85719,32.214412,-110.9595118,4.0,611,1,1,1,2,1,0,0,1,1,1,1,1,4,0,18119,3526,12170,34013,48571,43989
cz0sBSp8G2R2dqE6cccbuw,Wit or Witout Cheesesteaks,7352 Frankford Ave,Philadelphia,PA,19136,40.0378039,-75.0387664,2.5,37,0,0,1,1,1,1,0,1,0,1,0,0,4,0,12417,4712,4764,54391,68317,40647
UCCc31J4N8Y57RuzmInjyw,Chipotle Mexican Grill,350 S Perry Rd,Plainfield,IN,46168,39.713921,-86.355953,3.0,35,1,1,1,1,1,1,0,1,0,1,0,0,1,0,13703,7080,4291,70719,90647,30309
g-0-_hPz-yr_f4gBFbX2Ow,Kim's Cuban Sandwich Shop,11911 E Martin Luther King Blvd,Seffner,FL,33584,27.981183,-82.29767,4.0,39,1,1,1,1,1,1,0,1,1,0,1,0,4,0,9440,4375,3033,54970,74278,25392
ppV8AwESFjlG5FSRXdvtyg,LouVino,"530 Massachusetts Ave, Ste 140",Indianapolis,IN,46204,39.7748769,-86.1499074,4.5,236,1,1,1,2,1,0,1,1,1,1,0,1,1,0,4582,498,3999,73281,100517,5125
SKph9ovzvVSNzNFICgKb1Q,Union Burger,454 Mandalay Avenue,Clearwater,FL,33767,27.9800395966,-82.8279495239,2.5,42,0,1,1,2,1,1,0,1,1,1,0,0,4,0,4049,2123,1706,87340,143679,8007
Jr90GZ4uthyYp7407eyutQ,Sea Dog Cantina,2832 Beach Blvd S,Gulfport,FL,33707,27.7414706131,-82.70766,3.5,63,1,1,1,1,1,0,0,1,1,0,1,1,1,0,12512,4411,6571,51861,74263,24599
Ah7mpTWpdflSaCZHKHx8Dg,Yori's Church Street Bakery,15 N Church St,West Chester,PA,19380,39.9595399,-75.605789,4.5,86,1,1,1,1,0,1,0,1,0,0,0,0,4,0,20999,11647,7482,106738,136205,49534
EQ-TZ2eeD_E0BHuvoaeG5Q,Milktooth,534 Virginia Ave,Indianapolis,IN,46203,39.7591692208,-86.146494347,4.0,1379,1,1,1,2,1,1,0,1,1,1,0,0,2,0,14085,4662,6134,41321,58332,38950
C3Nc7EUqo64jRPWPn6vY9w,Chipotle Mexican Grill,818 Haddonfield Rd,Cherry Hill,NJ,8002,39.9274404658,-75.0318763641,2.5,73,1,1,1,1,1,1,0,1,1,1,0,0,4,0,8684,4254,3080,85291,109609,22274
E0KwLVaQ-uKEjJl3j_VAGQ,Firehouse Subs,593 E Prater Way,Sparks,NV,89431,39.5415757,-119.7366051,4.0,87,1,0,1,1,1,0,0,1,0,0,0,0,4,0,15322,5782,5826,50233,63806,36189
jnZYD2UCGziWwGsUxybkFw,Daredevil Hall,"2721 E 86th St, Ste 180",Indianapolis,IN,46240,39.9119165358,-86.1184757185,4.0,184,0,1,1,2,1,1,1,1,1,1,1,1,4,0,10165,3497,6021,56744,97368,18731
7YiLEuHuUONZrMPT0OxXUQ,McDonald's,432 N Virginia Ave,Reno,NV,89501,39.530632,-119.814276,1.5,89,1,1,1,1,1,1,0,1,1,1,0,0,3,0,2776,332,2213,44393,55619,4252
tXfeVYKJq-bGPx1sjHOMHA,Village Inn,22601 State Rd 54,Land O' Lakes,FL,34639,28.1866210597,-82.4428262548,2.5,61,0,0,1,2,1,1,0,1,1,1,0,0,4,0,10195,6284,2219,88723,99266,24092
ejRuEF2j8_w5qQbwEQ8GfQ,Villagio Pizza Cafe,2533 Clearfield St,Philadelphia,PA,19134,39.9851818,-75.1067498,3.0,47,1,0,1,1,1,1,1,1,1,1,0,0,4,0,21273,4436,8099,34374,47673,60675
KcTLv46oThYuSujjb4EfEA,Asian Cafe,"550 Kimberton Rd, Ste 10",Phoenixville,PA,19460,40.1305452,-75.5505053,3.5,80,1,0,1,2,1,1,1,1,0,1,0,0,1,0,16443,8339,6022,104504,139548,40154
_E0WPHfJEYmwOUCAj-Jq1A,Western Village Inn and Casino,815 Nichols Blvd,Sparks,NV,89434,39.5344459,-119.7344361,3.5,266,0,0,1,2,1,0,1,0,1,1,0,0,1,0,10651,5038,3923,68539,80202,25416
P3qii5-Hch2tDd1e59znXQ,Franci's Cafe,"4901 W Linebaugh Ave, Ste 7",Tampa,FL,33624,28.0408259,-82.5264812,4.5,34,0,0,1,1,1,1,0,1,1,1,0,0,2,0,15043,7421,5070,71668,89008,37457
N44roXfLNkBdpINQDjEFOQ,Carisilo's Mexican Restaurant,1978 Vandalia St,Collinsville,IL,62234,38.695337,-89.9666906,4.0,65,0,1,1,1,1,1,0,1,0,1,0,0,4,0,13713,6542,4742,58421,77591,33430
KBsLYznLfnJEY3RIBUZe0Q,Kei Sushi,5085 S McCarran Blvd,Reno,NV,89502,39.4785657157,-119.7867159918,4.0,357,0,0,1,2,1,1,1,1,1,1,1,0,2,0,18616,6344,8448,48782,65655,43566
k3sED9tpGEOtzhGxvcxTrw,Izzo's Illegal Burrito,4316 Veterans Blvd,Metairie,LA,70006,30.0046134,-90.1804121,3.0,147,1,0,1,1,1,1,0,1,0,1,0,1,4,0,6223,2964,2064,67321,82738,15703
tCLAeZsjXFG9RumJ4Hn0Kw,Maru Global,255 S 10th St,Philadelphia,PA,19107,39.9467949,-75.1577025,3.5,72,1,0,1,1,1,1,1,1,0,1,0,0,4,0,7823,1743,5771,60676,91522,14875
zTp2lpm3z5tVk62rA-pCdQ,Rooftop Garden,1105 Prospect St,Indianapolis,IN,46203,39.7521667,-86.1396658546,3.5,60,0,1,1,2,1,0,0,0,1,1,0,1,4,0,14085,4662,6134,41321,58332,38950
y8R6_RZsBO-b__bJaQjuaw,Factory Donuts,2828 S Eagle Rd,Newtown,PA,18940,40.2340222488,-74.9426154439,4.0,34,1,0,1,1,0,0,0,1,1,0,1,0,1,0,11515,7555,3170,132214,176878,28825
gLaxSkjWzt25hybkaKwQcA,Slim Goodies Diner,3322 Magazine St,New Orleans,LA,70115,29.9230437,-90.0882019,3.5,520,1,1,1,2,1,1,1,1,1,1,1,0,4,0,14847,5248,8000,77961,119724,31695
jnge13lFtiLGXQEo5NwSYw,Sucre Table,4048 W Kennedy Blvd,Tampa,FL,33609,27.9444151,-82.5116072,4.5,67,1,0,1,1,0,0,0,1,0,0,1,0,1,0,8497,3215,4322,85174,140410,15999
YGdUUAqeRT5Z7fYkpevEyA,Porterhouse,600 S Rivershore Ln,Eagle,ID,83616,43.688867,-116.35483,4.5,65,1,1,1,2,1,1,0,1,1,0,1,0,2,0,11230,7612,2444,89603,131663,22780
76xVA7wmqKLURF0tN82N5w,Bar Avalon,116 E Gay St,West Chester,PA,19380,39.9611607,-75.6033724,4.0,107,1,1,1,2,1,0,1,1,1,1,0,1,4,0,20999,11647,7482,106738,136205,49534
Cx3G-kw4kYtlcig8yG7fWw,Burger King,9700 Pyramid Way,Sparks,NV,89441,39.6390681642,-119.7106055823,1.5,57,1,0,1,1,1,1,0,0,1,1,0,0,2,0,4644,3253,854,109717,120941,11542
GOSVLhjUT6TnrPhkkmDOpw,Vineyards Cafe,847 N 16th St,Philadelphia,PA,19130,39.969939,-75.163026,4.5,192,1,1,1,1,1,1,0,0,1,1,1,0,2,0,14431,4157,9196,88858,121662,24870
kOHcpCZQd4uNp6G2uE8o2A,PrimoHoagies,1528 W Ritner St,Philadelphia,PA,19145,39.9209271,-75.1733058,4.0,43,1,0,1,1,1,1,0,1,0,1,0,0,1,0,17977,5720,8129,54353,70563,47261
l3pO6YTjFUgVoXgm3gfUag,Ichiban Buffet,2230 Marlton Pike W,Cherry Hill,NJ,8002,39.9231457,-75.0430536,2.5,48,0,0,1,2,1,1,0,1,1,1,1,0,4,0,8684,4254,3080,85291,109609,22274
h85b3MFPWyaopMBy8DpBpA,Ron's Caribbean Cuisine,5726 N Broad St,Philadelphia,PA,19141,40.0407573,-75.1448014,4.0,142,0,0,1,2,1,1,0,1,0,1,1,0,4,0,13077,2336,5843,36572,49039,31376
G6EkKOLWiOw_8G7olgvalg,Nicoletto’s Italian Kitchen,2123 Belcourt Ave,Nashville,TN,37212,36.1368318853,-86.8029680469,4.0,37,1,1,1,2,0,0,0,1,0,0,0,0,1,0,7149,2539,4043,71699,135689,20148
X8k7N03buo2bBbUUfcAltQ,Taco Bell,645 S Main St,Meridian,ID,83642,43.59716,-116.39233,1.5,38,1,0,1,1,1,1,0,1,1,1,0,0,4,0,17854,10414,5003,75708,95807,37008
w9hS5x1F52Id-G1KTrAOZg,Wiz Kid,124 S 19th St,Philadelphia,PA,19103,39.9509958568,-75.1723086834,4.5,163,1,0,1,2,1,1,0,1,0,0,0,0,4,0,15765,3571,11832,79110,134268,21908
FtkYGVPVCRuuhQhYJBSVQw,Zimmer's Seafood,4915 St Anthony Ave,New Orleans,LA,70122,30.0083429,-90.0644403,4.0,81,0,0,1,2,1,1,0,1,0,0,0,0,4,0,15659,3639,8644,34921,57633,28564
k9A4tAmei12tLprkrNPkcg,El Pollo Loco,10320 N Mccarran Blvd,Reno,NV,89503,39.5321041,-119.8640278,3.5,54,1,0,1,1,1,1,0,1,1,1,0,0,4,0,12469,4209,6739,54063,76117,27891
NKnwvuJygWPC42qycr6Hwg,Mano's Po-Boys,6943 Saints Dr,Metairie,LA,70003,29.981498,-90.2117653,4.5,77,1,0,1,2,1,1,0,1,0,1,1,0,2,0,15213,7479,5353,65501,84117,40150
2va-BK-z06mmPkSjNAJX0w,China King,450 Pennbrook Pkwy,Lansdale,PA,19446,40.2284736,-75.2820167,3.5,42,1,0,1,1,1,1,0,1,0,1,0,0,1,0,22647,12428,7315,87083,118037,55138
FYIL5duVgc9eLyYw6hobmw,Ellington's,401 Union St,Nashville,TN,37219,36.1648001,-86.7799287,4.0,107,1,1,1,1,1,0,1,1,1,1,1,1,1,0,777,137,640,85463,87750,1162
c8rjE6NcfeyzLB_aU1GdMA,Sláinte Pub & Grill,3000 Market St,Philadelphia,PA,19104,39.954815805,-75.1836068183,3.5,139,1,0,1,2,1,0,1,1,1,1,0,0,4,0,16508,2296,10575,28603,46430,51808
y5vYOsyL4bSFxeOtQtYbg,AJ's Fine Foods,2805 E Skyline Dr,Tucson,AZ,85718,32.3244248352,-110.9316140628,4.0,258,1,1,1,2,1,1,0,1,1,1,0,0,4,0,12818,6400,5543,93185,142567,27367
zxuVnNVAUm16Sro0dS_lmg,Roundabout Grill,"Whitney Peak Hotel, 255 N Virginia St",Reno,NV,89501,39.5278513,-119.8143374,4.0,244,0,0,1,2,1,1,1,1,1,1,1,1,4,0,2776,332,2213,44393,55619,4252
mCo2uVTTGYrEhRrkQW-CMw,Empress Garden,108 N 10th St,Philadelphia,PA,19107,39.9539403,-75.1563093,4.0,263,1,0,1,2,1,1,0,1,0,1,0,0,4,0,7823,1743,5771,60676,91522,14875
8bkSuPXdYW58QsUEOG77HQ,Taverna Food Spirits,1850 Broad Ripple Ave,Indianapolis,IN,46220,39.8688431771,-86.1284977181,3.5,35,0,1,1,3,1,0,1,1,0,1,0,0,1,0,16879,6824,8390,77377,109485,34830
T5f-IRQWQYgFQbgO_kVkvg,Northbrook MarketPlace,1805 Unionville Wawaset Rd,West Chester,PA,19382,39.912781,-75.684904,4.0,60,1,1,1,1,1,1,1,1,1,1,1,0,1,0,20429,10896,7580,104232,143574,52388
k-Wb-2Y2RFGlaY00_Hm8Sw,Slice Of Heaven Pizza,1366 Alt 19,Holiday,FL,34691,28.1790012359,-82.7431934248,3.5,66,1,1,1,1,1,1,1,1,1,1,0,0,2,0,8946,3575,3913,40537,51692,21079
n2HP8fenpzI7eg6TRDj4lw,Pizza Hut,6111 Crawfordsville Rd,Speedway,IN,46224,39.7994921703,-86.2674245238,1.5,32,1,0,1,1,1,1,0,1,1,1,0,0,4,0,13754,4288,5758,40965,51014,35094
nFSqTOt1LZSHQQKQsUZiKw,Stargate Diner,240 W Chester Pike,Ridley Park,PA,19078,39.871518,-75.330174,3.5,71,1,0,1,1,1,1,0,1,1,1,0,0,4,0,4528,2107,1687,84063,95485,11067
iXemjTj5TOByT1-cNTSaDw,PureBread Deli,1309 Churchmans Rd,Newark,DE,19713,39.692037,-75.666564,4.0,64,1,0,1,1,1,1,0,1,1,1,1,0,4,0,11688,4771,4859,59030,75486,30408
wi4F4NUvxn7UWHvQ1Iiz7w,Annex,400 Beach Dr NE,Saint Petersburg,FL,33701,27.7770193148,-82.6317201189,3.5,46,0,1,1,2,0,1,0,1,1,1,1,0,1,0,9120,2230,6371,46786,87867,15014
7wQEzj-0yOpLiANNLuUflQ,Deepwater Diner,455 Shell Rd,Penns Grove,NJ,8069,39.691701,-75.484253,4.0,49,1,0,1,1,1,1,0,1,1,1,0,0,4,0,4763,1625,2032,51964,61786,13076
I2Yt74AzSQFfyQqgN7PSEg,Sheraton Indianapolis Hotel at Keystone Crossing,8787 Keystone Crossing,Indianapolis,IN,46240,39.9153605,-86.1084079,2.5,141,0,0,1,2,0,0,0,0,1,0,1,0,1,0,10165,3497,6021,56744,97368,18731
rVfe1LHo55A2fworkm_jVw,Capofitto,233 Chestnut St,Philadelphia,PA,19106,39.9485775068,-75.1450225711,4.5,205,1,0,1,2,1,1,1,1,1,1,1,1,4,0,7625,2113,5180,116368,162885,11740
VOGWnQHijIpURf4eNSvIaw,Imperial Asian Buffet,21627 Villages Lakes Shopping Dr,Land o lakes,FL,34639,28.190878,-82.458285,3.0,56,0,0,1,2,1,1,0,1,1,1,0,0,4,0,10195,6284,2219,88723,99266,24092
txasGoZ1qB5toVaFiTbpmQ,The Brunchery,17507 Preserve Walk Ln,Tampa,FL,33647,28.127905,-82.3691115,4.0,88,1,1,1,2,1,1,0,1,1,1,0,0,4,0,25565,14474,7443,89270,120593,55034
Cpl1-0iX6N7yauiJKhpXfA,Hong Kong Star Noodle House,2852 Street Rd,Bensalem,PA,19020,40.111675,-74.955319,3.5,50,1,0,1,2,1,1,1,1,1,1,0,0,1,0,21379,10247,7290,70488,94744,55493
YlEBQLfRHocJDn4gRlgczw,Brick City Eatery,"16540 Pointe Village Dr, Ste 108",Lutz,FL,33558,28.189368941,-82.540934119,4.0,114,1,0,1,2,1,1,0,1,1,1,1,1,4,0,9168,5367,2532,85281,121853,20064
k6XrnjX2TBM_nDzD_XA9NQ,Terrace Lounge,2707 S Virginia St,Reno,NV,89502,39.4972231,-119.8010219,3.5,84,0,1,1,2,1,0,0,0,1,1,0,0,4,0,18616,6344,8448,48782,65655,43566
V0vIgo6196MDn_x3ZaYmA,La Creperie Cafe,1722 Sansom St,Philadelphia,PA,19103,39.9506242,-75.1697297,3.5,146,0,0,1,2,1,1,1,1,0,1,0,0,1,0,15765,3571,11832,79110,134268,21908
YPnksHT2DQA0AhcxP6udxw,Corner Bakery,160 N Gulph Rd,King of Prussia,PA,19406,40.08705,-75.395706,3.5,63,1,0,1,1,1,1,0,1,1,1,0,0,4,0,11438,5682,4700,97305,114751,23441
8xz4jzsKSU10CFvbHhYJXw,Joe's Crab Shack,8250 Dean Rd,Indianapolis,IN,46240,39.9062719,-86.0987866,3.0,62,0,1,1,2,1,1,0,1,1,1,0,0,4,0,10165,3497,6021,56744,97368,18731
AEOd0wRdjeLIXb1usSp9hg,Kung Fu Noodle,"3122 N Campbell Ave, Ste 100",Tucson,AZ,85719,32.2636803,-110.9431659,4.0,217,1,0,1,2,1,1,1,1,1,1,0,0,2,0,18119,3526,12170,34013,48571,43989
EBn3U4mpnIRLIy2lKuilRQ,Logan's Roadhouse,727 Thompson Ln,Nashville,TN,37204,36.1119137436,-86.766502,2.0,120,1,0,1,2,1,1,0,1,1,1,0,1,2,0,6080,2403,3122,89954,148770,12031
kLS3Sth5HvO0IjrXCCvXxA,Wawa,19th St & Market St,Philadelphia,PA,19103,39.953351,-75.172624,2.5,45,1,0,1,1,0,0,0,1,1,0,0,0,4,0,15765,3571,11832,79110,134268,21908
sdWuLh-auc0nC2Jy6_26AQ,The Black Sheep Pub & Restaurant,247 S 17th St,Philadelphia,PA,19103,39.9484223,-75.1692901,3.5,339,1,0,1,2,1,0,0,1,1,1,0,0,4,0,15765,3571,11832,79110,134268,21908
ncxN9II-MeXRudUrE3GVsA,Bridgeport Rib House,1049 Ford St,Bridgeport,PA,19405,40.0991065,-75.3513976,3.5,135,0,0,1,2,1,0,0,1,0,1,0,1,3,0,2034,517,1036,52370,81058,5127
1JHPRGTHrrSIcKDGzsXddQ,Logan's Roadhouse,351 S Perry Rd,Plainfield,IN,46168,39.714395,-86.354627,2.5,76,1,0,1,2,1,1,0,1,1,1,0,0,4,0,13703,7080,4291,70719,90647,30309
hr1XaVzp6htS41LjwKjIbQ,Stella Maris Restaurant & Hookah Lounge,7555 W Judge Perez Dr,Arabi,LA,70032,29.9594566,-89.9931219,4.5,78,1,1,1,2,1,1,1,1,1,1,1,0,1,0,1542,636,633,48621,59653,3635
G6kRQylkjNNE-yUXM2muBg,Brandon Bagels,942 W Brandon Blvd,Brandon,FL,33511,27.9382531,-82.2973831,4.5,119,1,0,1,1,0,0,0,1,0,0,0,0,4,0,22334,9691,7955,61149,79120,52003
TqgsB91kKWjU4aKGR4GCgQ,Brother Paul's,3300 Ridge Pike,Eagleville,PA,19403,40.1595512,-75.4085693,3.0,85,0,1,1,2,1,1,0,1,1,1,0,0,4,0,18879,9749,7193,85248,107812,44260
3OGzmGqWwsyGLkhnxrA9Pw,Gourmet Pizza Company,"610 S Armenia Ave, Ste 101",Tampa,FL,33609,27.937948,-82.484684,4.0,185,1,0,1,2,1,1,0,1,1,1,1,0,4,0,8497,3215,4322,85174,140410,15999
Yll7kUVI7j0gArBMQKpEaQ,High Brow Coffee + Tea,"188 Front St, Ste 102",Franklin,TN,37064,35.929464,-86.919329,4.0,125,0,1,1,1,1,1,0,1,1,0,1,0,4,0,21795,14497,4934,105342,134928,48118
ajfBGoRGUzhD0fTXLENcrw,Asahi Sushi & Asian Grill,102 Woodland Hwy,Belle Chasse,LA,70037,29.8635757,-89.9964664,4.0,56,0,0,1,2,1,1,1,1,0,1,1,0,1,0,5665,3309,1251,71956,97678,15590
9_m_iA3VAqGBJEW5XLc-5w,The Cuban Sandwich Shop,8329 Michigan Rd,Indianapolis,IN,46268,39.906797,-86.2182121,4.5,506,0,0,1,2,1,1,0,1,0,1,1,0,4,0,10741,3523,5809,52458,65237,24965
3CsBRtDT5WOUu8IY0mHhXw,Slices Pizza,4249 Ridge Ave,Philadelphia,PA,19129,40.0096537,-75.1954732,4.0,122,1,1,1,1,1,1,0,1,0,0,0,0,4,0,4901,1547,2759,72328,97886,10975
7l-j0MBJr8KR7Hzk4uaaAQ,Wingstop,4704 Veterans Memorial Blvd,Metairie,LA,70006,30.0045163,-90.1884469,2.5,87,1,0,1,1,1,1,0,1,1,1,0,0,4,0,6223,2964,2064,67321,82738,15703
16zHT7zp6K9IEQZ1oW6xXg,PB's Diner,500 Delsea Dr N,Glassboro,NJ,8028,39.7136834654,-75.1113189153,2.5,119,1,1,1,2,1,1,0,1,1,1,0,1,4,0,6696,3282,2253,75189,87171,20078
zOXvoQVFElBEhz__YT6VNw,Logan's Roadhouse,1715 Gallatin Pike N,Madison,TN,37115,36.295855,-86.699384,2.0,62,1,1,1,2,1,1,0,1,0,1,0,0,4,0,17024,4935,8154,46777,59429,37316
uPVKWy0VeMMHMJ0V87nMMw,Rolynos Original Pizza,3530 S Mann Rd,Indianapolis,IN,46221,39.7759919521,-86.2499258245,3.5,33,1,0,1,2,1,0,0,1,1,0,1,0,4,0,9805,3954,3463,49399,61248,26393
nP4LqTcK1USiw5WnbOjW7A,Marrakesh Express,4407 Chestnut St,Philadelphia,PA,19104,39.9567155,-75.2100343,4.5,48,1,0,1,1,1,1,0,1,0,1,0,0,1,0,16508,2296,10575,28603,46430,51808
iHV3uBo1N9ETBtuEqdDsWQ,Sun King Broad Ripple,1021 Broad Ripple Ave,Indianapolis,IN,46220,39.8693211,-86.1407479,4.0,97,0,1,1,2,1,1,0,1,1,0,1,0,4,0,16879,6824,8390,77377,109485,34830
REns5fQe45Nk_D2UwQyr0w,Barra Restaurant,239 Chestnut St,Philadelphia,PA,19106,39.948818,-75.1456539,2.5,117,1,1,1,2,1,0,1,1,1,1,0,1,4,0,7625,2113,5180,116368,162885,11740
u75fYA_bwkfWK6yvdfveCA,Opas Grill,500 N 4th Ave,Tucson,AZ,85705,32.2280786,-110.9654562,4.5,36,1,1,0,1,0,0,0,1,0,0,0,0,1,0,24304,6115,12791,30885,42888,57521
1NCUTTp6rIyXpwUDVv9qOA,Lazos Pizza & Grill,2533 Poplar St,Philadelphia,PA,19130,39.9727751034,-75.1789870874,4.0,176,1,0,1,1,1,1,0,1,0,1,0,0,4,0,14431,4157,9196,88858,121662,24870
ERl6OCSEIFBOqfjai_jIUg,La Parrilla Suiza,2720 N Oracle Rd,Tucson,AZ,85705,32.25642,-110.97746,3.0,125,1,0,1,2,1,1,1,1,1,1,0,1,2,0,24304,6115,12791,30885,42888,57521
Yv9KUZ-N3otoKUtToPPxAg,The Hattery Stove & Still,18 W State St,Doylestown,PA,18901,40.3096366381,-75.1309594139,4.0,274,1,1,1,2,1,1,1,1,1,1,1,0,4,0,10486,5469,3860,103626,133441,27598
cXAKeC-EgVChIxhS7fscmw,Ghini's French Caffe,1803 E Prince Rd,Tucson,AZ,85719,32.2735760993,-110.944434852,3.5,427,1,1,1,2,1,1,1,1,1,1,1,1,4,0,18119,3526,12170,34013,48571,43989
yYuRiXwKTRP46dsyMVstKA,Organico Pizza,21 N Maple Ave,Marlton,NJ,8053,39.8926492779,-74.9216213264,4.0,121,1,1,1,2,1,1,0,1,1,1,1,0,4,0,18109,10081,6155,99454,124618,45538
jW4a3W9-UkFxpglHvo_Kqg,Meun Fan Thai Cafe,1819 Cliff Dr,Santa Barbara,CA,93109,34.401169,-119.721505,4.0,195,0,1,1,2,1,1,1,1,0,1,0,0,1,0,4601,1980,2138,99556,136375,10858
8ihWBaqzn5hx4kwQm87GzA,Mawi Tortillerias,"5050 W Esplanade Ave, Ste C",Metairie,LA,70006,30.0167047,-90.200741,4.5,50,1,1,0,1,0,0,0,1,0,0,0,0,1,0,6223,2964,2064,67321,82738,15703
a7ZmzKZRhVjKaJBZ7zIGzg,The Dish Bistro,3131 E 1st St,Tucson,AZ,85716,32.2354037,-110.9255968,4.0,69,0,0,1,3,1,0,1,1,0,0,0,0,1,0,15259,3927,9170,42147,60003,32853
R0HjMCL_m5wjBeUpOXqzdA,Twistee Treat - Sheldon,5531 Sheldon Rd,Tampa,FL,33615,27.998621,-82.5828717,4.0,58,0,1,1,1,1,1,0,1,1,0,1,0,1,0,18028,7440,6638,53516,73973,43453
XX2PSfT4xuHq0yuoPIge1A,Books & Brews - Zionsville,65 Boone Vlg,Zionsville,IN,46077,39.9518148443,-86.2781691611,4.0,66,1,0,1,2,1,1,0,1,1,1,0,0,4,0,10829,8241,1693,140092,187445,24512
i7akkU95QVETwwX8D2qH-Q,Joe Gambino's Bakery,4821 Veterans Memorial Blvd,Metairie,LA,70006,30.006131153,-90.191617012,3.5,151,1,0,1,2,0,0,0,1,0,0,1,0,1,0,6223,2964,2064,67321,82738,15703
xR3inMR2KceU3b9dhkz_tw,Lascelles Granite City,1324 Niedringhaus Ave,Granite City,IL,62040,38.7013281,-90.1494623,4.0,48,0,0,1,2,1,0,1,1,1,1,1,0,4,0,17726,7801,6298,53964,63593,43735
yPzni14snM06Kk5xLy6e6w,Wang Cai,209 S State Rd 135,Greenwood,IN,46142,39.6126787,-86.1575896,3.5,31,1,0,1,1,0,0,0,1,0,0,0,0,1,0,12431,7441,3655,77155,94444,30413
6nhKTMtbqY4NPr-QFxQNoA,Golden Corral Buffet & Grill,3360 Green Mt Crossing Rd,Shiloh,IL,62269,38.574025,-89.9238064,2.5,38,1,0,1,2,1,1,0,1,0,1,0,0,4,0,12419,7397,3198,86493,112975,31348
mUIBtlWNPD7sz3rGGWQ1RA,Kanella,1001 Spruce St,Philadelphia,PA,19107,39.9463322,-75.1579478,4.5,579,0,1,1,2,1,0,1,1,1,1,0,0,4,0,7823,1743,5771,60676,91522,14875
MqM7ACk2dMtx-F_Rlc7Suw,Coney Island,5327 Gall Blvd,Zephyrhills,FL,33542,28.2353642102,-82.1826653295,3.5,63,0,1,1,1,1,1,0,1,1,1,0,0,4,0,10301,4000,4520,36239,45479,20824
I2xoIjcjxQHRg4-5msu8tg,Lima Fusion,32 S Main St,New Hope,PA,18938,40.3636448,-74.9508796,4.0,33,1,0,1,2,0,0,0,1,0,1,0,0,1,0,6044,3534,1936,118877,191503,13989
G047PcbKKb0YHwtpfZE8yg,Franks Restaurant,201 E Center Dr,Alton,IL,62002,38.9225356072,-90.1721286994,3.5,32,0,1,1,1,1,1,0,1,1,1,1,0,1,0,13430,4893,5675,48720,65294,32704
_FlhRk9KjdXyE0sLxUdEBQ,Commonwealth Kitchen,8016 Frankford Ave,Philadelphia,PA,19136,40.04186,-75.0275663,3.5,38,1,0,1,2,1,1,0,1,1,1,0,0,2,0,12417,4712,4764,54391,68317,40647
yJqN-U9dUylYEwTr8SBP1Q,Grain and Berry,"12953 US-301, Unit 103",Riverview,FL,33578,27.799635,-82.335347,3.5,43,1,0,1,1,0,0,0,1,0,0,0,0,4,0,20742,8818,7575,65142,77903,36693
O8RzM_uLVEnDWEhX3whqtQ,Sonic Drive-In,617 Old Hickory Blvd,Bellevue,TN,37209,36.1083438,-86.9230086,1.5,34,1,1,1,1,1,1,0,1,1,0,1,0,4,0,16513,5233,8829,61096,82024,35457
dSPA4yql9vUwnYRxHiVtHA,Makiman Sushi,1326 Spruce St,Philadelphia,PA,19107,39.9466853,-75.1639951,3.5,209,1,1,1,2,1,1,1,1,0,1,0,0,4,0,7823,1743,5771,60676,91522,14875
YdpDpp130fxiX2DUdQLSqg,Bardea Food & Drink,620 N Market St,Wilmington,DE,19801,39.742496,-75.54969,4.5,181,1,1,1,2,1,0,1,1,1,1,1,1,1,0,7031,870,4041,33410,49965,16286
Tdz-vjDRKI6LRzyaW3BMkg,Charlie's Roast Pork,1301 S 3rd St,Philadelphia,PA,19147,39.9315335419,-75.1496175304,4.5,30,1,1,0,1,0,0,0,1,0,0,0,0,1,0,18239,6207,10326,86147,128426,36228
gq4zw-ru_rkZ2UBIanaZFQ,McDonald's,1201 N Broad St,Philadelphia,PA,19122,39.9720955382,-75.1588091254,1.0,38,1,0,1,1,1,1,0,1,0,0,0,0,1,0,6799,1355,3790,44758,72780,21653
EP8aZWRSxrGgpp86cpXFuw,Mongolian of Eagle,362 S Eagle Rd,Eagle,ID,83616,43.691703,-116.351951,4.0,45,1,1,1,1,1,1,1,1,1,1,1,0,3,0,11230,7612,2444,89603,131663,22780
a8Q2bvUW6mAiws7xW7cS6g,KFC,104 N Pottstown Pike,Exton,PA,19341,40.0288224113,-75.629475,1.5,45,1,0,1,1,0,0,0,1,1,1,0,0,1,0,7825,4563,2392,107338,135072,16709
0cB1kDuZCvSwpJrNdtQP8Q,Giordano's,43 North Illinois St,Indianapolis,IN,46204,39.7681769,-86.1596387,3.5,284,1,1,1,2,1,1,1,1,1,1,0,0,4,0,4582,498,3999,73281,100517,5125
zbvu8pRKcOQqdjqRGbncyQ,Cheddar's Scratch Kitchen,210 Anderson Ln N,Hendersonville,TN,37075,36.3214422787,-86.5986949568,3.0,117,0,1,1,2,1,1,0,1,1,1,1,0,2,0,24850,14487,6772,77320,104158,59256
BWITd9JUXP3gSi1z3Y-z8g,In Riva,4116 Ridge Ave,Philadelphia,PA,19129,40.0078746,-75.1924072,4.0,729,1,1,1,2,1,1,1,1,1,1,0,1,4,0,4901,1547,2759,72328,97886,10975
eWGdkt9fdwg7aKboaZIVQQ,Uncle Maddios Pizza,3949 Van Dyke Rd,Lutz,FL,33558,28.1279022,-82.504413,4.0,103,0,1,1,2,1,1,0,1,1,1,1,1,2,0,9168,5367,2532,85281,121853,20064
tr5Os7k3FpPz7NbWYwZa5Q,Vela,140 Veterans Ln,Doylestown,PA,18901,40.3193924,-75.1322364,3.5,68,0,0,1,1,1,0,1,0,0,1,0,1,1,0,10486,5469,3860,103626,133441,27598
4JQ0hePJAlBepDzb20_32g,Beanie's Bar & Sports Grill,2002 S US Hwy 41,Ruskin,FL,33570,27.704314281,-82.4425658705,3.5,80,0,1,1,2,1,1,0,1,1,1,0,1,4,0,9788,5270,2497,54977,71811,20758
PEs5kilsGdB31jSt84ItuA,Chuck's BBQ,2 Pond St,Bristol,PA,19007,40.0959133,-74.8593254,3.0,36,1,1,1,1,1,0,0,1,0,0,1,0,1,0,8719,3260,3436,58802,78455,21125
Wt5Zpu-lZ1UK1hccCnJMwQ,Mimi's Italian Eatery,1871 E Route 70,Cherry Hill,NJ,8003,39.903699062,-74.9703166902,4.0,49,1,1,1,1,1,1,0,1,0,1,0,0,4,0,10884,7816,2038,132441,162489,30629
6TttC-1-rf5gC0QHWrs_w,Goody's Cafe,2912 Belle Chasse Hwy,Terrytown,LA,70056,29.880818,-90.0211886,3.5,31,0,0,1,1,1,1,0,1,1,0,0,0,4,0,14638,6925,4652,56167,77138,39082
46fEorqn2nVbxdclHdHdKg,Gentelin's On Broadway,122 E Broadway,Alton,IL,62002,38.8902684,-90.183487,4.0,69,0,1,1,2,1,0,1,1,1,1,0,1,4,0,13430,4893,5675,48720,65294,32704
m4lkv5ksqtdXvlIVIftH_A,Pearl,1904 Chestnut St,Philadelphia,PA,19103,39.9517967,-75.1722608,2.5,32,0,0,1,3,1,0,1,0,0,1,0,1,1,0,15765,3571,11832,79110,134268,21908
YT0A2VuGbOAkhvJmpPXuxQ,Texas Roadhouse,1039 Glenbrook Way,Hendersonville,TN,37075,36.331238,-86.62272,3.5,87,0,0,1,2,1,1,0,1,1,1,0,0,3,0,24850,14487,6772,77320,104158,59256
8LonS_bxNmCDk3FWiG9lzA,Tomo Sushi & Ramen,228 Arch St,Philadelphia,PA,19106,39.951923,-75.144335,4.5,193,1,1,1,2,1,1,1,1,0,0,1,0,4,0,7625,2113,5180,116368,162885,11740
VgsbZSm5NRaDg2ds_FDBrg,Deja Brew Laugh A Latte,112 E Idaho Ave,Meridian,ID,83642,43.6112994,-116.3910318,4.5,115,1,1,1,2,1,1,1,1,1,1,1,1,4,0,17854,10414,5003,75708,95807,37008
64i1xdiU1Wvo1Cuu0erFGA,Megu Sushi & Hibachi,"1990 Marlton Pike E, Ste 18",Cherry Hill,NJ,8003,39.8996708,-74.9532997,3.5,121,1,1,1,2,1,1,1,1,1,1,1,1,2,0,10884,7816,2038,132441,162489,30629
ioAcpe5KRvacB2lna-wdaw,Felicias Pizza Kitchen,18 W Lancaster Ave,Ardmore,PA,19003,40.00806,-75.291783,4.0,176,1,1,1,2,1,1,0,1,0,1,0,0,4,0,5665,2805,2250,105061,135760,12519
EROSyhoWNCUH53NrDrsHgQ,Mary's Kountry Kitchen,222 Main St,Wilmington,DE,19804,39.713166,-75.646243,4.0,50,0,0,1,1,1,1,1,1,1,1,0,0,2,0,7071,2912,2958,61531,75270,17944
iVegX9epKU8R0eRAEwQ6Yg,Burritos Grill Mexican Fresh Cuisine,7009 Read Blvd,New Orleans,LA,70127,30.0387300722,-89.9769829586,4.5,75,0,0,1,2,1,1,0,1,1,1,0,1,4,0,8901,1844,4354,30224,43979,20471
C8ge1djpXbFPyhzp2Yhzfw,Angie's Luncheonette,15 Park St,Bordentown,NJ,8505,40.1492333,-74.7131766,4.0,72,1,1,1,1,1,1,0,1,1,1,1,1,4,0,6729,3263,2192,95776,116164,17736
g3LweOTJlJoALtaShN4SLA,Barrel 55,3004 N Eagle Rd,Meridian,ID,83646,43.6327333,-116.3538141,2.5,148,0,1,1,2,1,1,1,1,1,1,1,1,4,0,23299,14659,5346,79706,104342,47098
Ydo8zFl1PaO--g5zwyVyVg,Loco Lucho's Latino Kitchen,51 N 12th St,Philadelphia,PA,19107,39.9531593,-75.1590984,3.5,40,1,1,1,1,0,1,0,1,0,1,0,0,1,0,7823,1743,5771,60676,91522,14875
PzhPMkaNYiKDTHoTG0r8rw,Pho Cam Ly,3814 Magazine St,New Orleans,LA,70115,29.9211868,-90.0945189,4.5,178,1,1,1,1,1,1,0,1,1,1,0,0,1,0,14847,5248,8000,77961,119724,31695
2iQucreJtTqbEsLczhsgrA,India Sizzling II,"4150 Lafayette Rd, Ste E",Indianapolis,IN,46254,39.830272,-86.242362,4.0,169,1,0,1,2,1,1,0,1,1,1,0,0,1,0,15672,4929,6951,46693,66661,38095
FZCj995CEL2G-JTiLC3Azw,Taco Bell,2401 N Meridian St,Indianapolis,IN,46208,39.80109,-86.15661,1.5,38,1,0,1,1,1,0,0,1,0,0,0,0,4,0,8535,2060,4636,40707,68693,22239
xruWHK8Z5N0JWyQubLHjgA,Potito's Italian American Pastries,1614 W Ritner St,Philadelphia,PA,19145,39.9210221,-75.1744313,3.5,88,1,0,1,2,0,0,0,1,0,0,0,0,1,0,17977,5720,8129,54353,70563,47261
TFnGJlA5l_HDdzGDkNTdTA,Smiths Restaurant and Bar,"39 S 19th St, Ste 41",Philadelphia,PA,19103,39.9522486027,-75.1716919961,3.0,225,1,0,1,2,1,0,1,1,1,1,0,0,3,0,15765,3571,11832,79110,134268,21908
dO4iyNK2KzLMe1kXLCskbw,St. Declan's Well,3131 Walnut St,Philadelphia,PA,19104,39.952126,-75.186438,3.5,30,0,0,1,2,1,0,1,1,1,1,0,1,4,0,16508,2296,10575,28603,46430,51808
KkpAwKzn5olmxH2K2GauNw,Pica's Restaurant,1233 W Chester Pike,West Chester,PA,19382,39.9686348,-75.5571687,3.5,141,1,0,1,2,1,1,1,1,0,1,0,0,3,0,20429,10896,7580,104232,143574,52388
zSEqhlaHqY8sIDxznturEQ,McDonald's,475 S Oxford Valley Rd,Fairless Hills,PA,19030,40.171540527,-74.8515835404,1.5,32,1,1,1,1,1,1,0,1,1,1,0,0,1,0,4546,2422,1206,81921,98506,12122
o7cD_sDA-Evj3Oh0zeH9nQ,Asian Pho,"4997 Longley Ln, Ste C",Reno,NV,89511,39.4772101759,-119.7649025917,3.5,194,1,0,1,1,1,1,0,1,0,1,0,0,4,0,11651,6956,3398,106071,157438,25011
viVz0HzP-_CbU07HUCquZQ,K&T Deli,"3738 Lafayette Rd, Ste B",Indianapolis,IN,46222,39.8227369,-86.234235,4.0,48,0,0,1,1,1,1,0,1,1,0,0,0,4,0,12409,3423,5320,38110,45238,34044
RdDS9iOb5JJhFom1Ny4xUQ,Slack's Hoagie Shack,110 Lincoln Hwy,Fairless Hills,PA,19030,40.1802431173,-74.8678294286,3.5,58,1,0,1,1,1,1,0,1,0,1,1,0,4,0,4546,2422,1206,81921,98506,12122
2er_V-oAd7IbQ5YTY56r7A,Bareburger - Midtown Village,1109 Walnut St,Philadelphia,PA,19107,39.9489334,-75.1595088,4.0,622,1,1,1,2,1,1,0,1,1,1,1,1,4,0,7823,1743,5771,60676,91522,14875
gVfnWwDXmjXXuZPBW85XPA,Desi Spice,2717 W Main St,Trooper,PA,19403,40.146309,-75.393151,4.5,51,1,0,1,2,1,1,1,1,1,1,0,0,1,0,18879,9749,7193,85248,107812,44260
q6661I3CGW0UB740E5Zjfw,India House,418 State St,Santa Barbara,CA,93101,34.4165402,-119.6945773,2.0,136,0,1,1,2,1,1,1,1,1,1,0,0,4,0,13296,4177,6819,62925,91126,31683
F-vfI049swuwDR7HMOW1Fg,Red Habanero,8510 E 96th St,Fishers,IN,46037,39.927974,-86.018796,3.5,198,1,1,1,2,1,1,0,1,1,1,0,0,4,0,14661,10039,3087,115018,139179,35891
PxQZBLFh14LFIj4HHWG_Kg,La-China Poblana,10 Berlin Rd,Clementon,NJ,8021,39.8050839677,-74.9897100583,4.0,30,1,0,1,2,1,1,1,1,1,1,0,0,1,0,18973,6412,8520,55474,70557,44833
_O16xyQwp0YSTG2RgweRYA,Luigi's Italian Restaurant,"3224 W Gandy Blvd, Ste 3",Tampa,FL,33611,27.893361,-82.49954,3.5,37,1,1,1,2,1,1,1,1,1,1,0,1,2,0,16269,6087,8484,66495,103942,29478
I5KZm-NnxYeEQsmp6nK5_w,Las Cazuelas Restaurant BYOB,426 W Girard Ave,Philadelphia,PA,19123,39.9698623,-75.1439919,4.0,338,1,1,1,2,1,1,1,1,1,1,1,0,4,0,8565,2020,5678,77111,106137,13416
K4TlU26IH19tM_VvTMnpyg,Rivista,4226 Magazine St,New Orleans,LA,70115,29.9208686,-90.0997285,4.0,41,0,0,1,1,1,1,0,1,1,0,0,0,4,0,14847,5248,8000,77961,119724,31695
rSe2uJ54OG3ytfTBIzW8Nw,Chavelita's Cocina Mexicana,2080 Mill St,Reno,NV,89502,39.5205888,-119.7863242,4.5,120,1,1,1,1,1,1,0,1,1,0,1,0,1,0,18616,6344,8448,48782,65655,43566
okZQEPO78ybzdFkRgnN-Ow,Golden Corral Buffet & Grill,10220 East Washington Street,Indianapolis,IN,46229,39.7755872,-85.9867587,2.5,43,1,0,1,2,1,1,0,1,0,1,0,0,4,0,11683,4075,4426,55407,72085,27262
WusgaQ64KO8y2KAAHtTxWQ,Kings Gyro,1113 Murfreesboro Rd,Franklin,TN,37064,35.9170989419,-86.8344782003,4.5,69,0,0,1,1,1,1,0,1,1,1,0,0,2,0,21795,14497,4934,105342,134928,48118
Gf1EboxqdJ9SPsVJur93Cw,QDOBA Mexican Eats,"907 Indiana Ave, Ste A",Indianapolis,IN,46204,39.7797445,-86.1728502,2.5,68,1,0,1,1,1,1,0,1,1,1,0,0,1,0,4582,498,3999,73281,100517,5125
KJ8Wx5FGrQQMsEnqUlXiMA,Blue Bell Pizza,34 W Skippack Pike,Blue Bell,PA,19002,40.1396559,-75.2453747,3.0,61,1,0,1,1,1,1,0,1,0,1,0,0,4,0,11620,7069,3140,117544,161793,32412
1ol8rghO_5m0M5WFMv-C8Q,KFC,275 N Mccarran St,Sparks,NV,89431,39.5357831889,-119.7373932944,2.0,32,1,0,1,1,1,1,0,1,1,1,0,0,2,0,15322,5782,5826,50233,63806,36189
P8QLcGZZOPgl9w_3ARBKiQ,Hai Street Kitchen & Co,125 S 40th St,Philadelphia,PA,19104,39.954687,-75.202181,3.5,100,1,0,1,2,1,1,0,1,1,1,1,0,4,0,16508,2296,10575,28603,46430,51808
6USj3cqHAf2HkjBNomafRA,Bowl & Roll,900 Rosa L Parks Blvd,Nashville,TN,37208,36.169304,-86.788028,4.0,38,1,1,1,1,1,1,0,1,1,1,0,0,1,0,8415,1787,4760,47903,74491,16067
UQssxfQY7LcLEtagk9ecog,Aroma Indian Bistro,43 S Centre St,Merchantville,NJ,8109,39.9508686,-75.0486,4.5,100,1,0,1,2,1,0,0,1,1,0,0,0,1,0,8359,3715,2517,68755,80315,22407
Vnob_w_Aohf7ZDqxcJ9z2A,Mint Modern Vietnamese Bistro & Bar,5100 Freret St,New Orleans,LA,70115,29.9349228653,-90.1095502387,4.0,403,1,0,1,2,1,1,0,1,0,1,0,1,4,0,14847,5248,8000,77961,119724,31695
HKbRmIZDRqeC6obLG0k_DQ,Jack in the Box,5615 Charlotte Pike,Nashville,TN,37209,36.1496176,-86.8584106,2.0,32,1,0,1,1,1,1,0,0,0,1,0,0,4,0,16513,5233,8829,61096,82024,35457
zSEFzAbxnO44w8ACQ_XkAA,Akira Hibachi & Sushi Bar,13420 Boyette Rd,Riverview,FL,33569,27.8521439085,-82.2678940657,4.0,74,1,0,1,2,1,1,0,1,1,1,0,0,2,0,10181,5379,3017,76560,88644,23074
a1E2BPYnufFzb6YX2pplJg,Wahoo's Fish Tacos,511 State St,Santa Barbara,CA,93101,34.416913,-119.6961686,3.5,62,0,0,1,1,1,1,0,1,0,1,0,0,4,0,13296,4177,6819,62925,91126,31683
2jvmqojTdrdj3YboXzKRcw,Something Grilled,"260 N Pottstown Pike, Ste 50",Exton,PA,19341,40.0341555,-75.6335018,3.5,75,0,0,1,2,1,1,0,1,0,1,1,0,4,0,7825,4563,2392,107338,135072,16709
w18LqIckdMOK7-PU49KBsQ,Taco Bell,200 East Prater Way,Sparks,NV,89431,39.5420749487,-119.7391727759,2.0,71,1,0,1,1,1,1,0,1,0,1,0,0,3,0,15322,5782,5826,50233,63806,36189
zUJMvjK6aBeQtVCowZ85-w,Panasian Buffet,833 Adams Ave,Philadelphia,PA,19124,40.0308845266,-75.1041150063,3.5,62,1,0,1,2,1,1,1,1,1,1,1,0,4,0,22837,6329,7594,36884,56264,66691
A0zZI5AnaeK4-vKoc9ABmg,Aroy Thai,1140 Central Park Dr,O Fallon,IL,62269,38.5738228,-89.9310173,3.5,157,0,1,1,2,1,1,0,1,0,1,1,0,4,0,12419,7397,3198,86493,112975,31348
_TANOcxwIOmQhk1mnXaj7w,Wendy's,"4997 Longley Lane, Ste 4",Reno,NV,89502,39.4775312,-119.7651445,1.5,51,1,0,1,1,1,1,0,1,1,0,0,0,4,0,18616,6344,8448,48782,65655,43566
5FDt7sy-70y4_37Dh2qcbw,El Arado Mexican Grill,1063 Virginia Ave,Indianapolis,IN,46203,39.7523127,-86.140383,3.0,162,1,0,1,1,1,1,0,1,0,1,0,0,4,0,14085,4662,6134,41321,58332,38950
yWx7-4lHvyT0TpIO7pLA3Q,StarLite Sapphire,3400 Pasadena Ave S,St. Petersburg,FL,33707,27.7507274,-82.7428137,3.5,45,0,1,1,3,1,1,1,0,1,1,0,0,3,0,12512,4411,6571,51861,74263,24599
_AqS7hNIQra2bsZRgVs-kQ,Taco Bell,6327 E 82nd St,Indianapolis,IN,46250,39.905167,-86.059453,2.0,48,1,0,1,1,1,1,0,1,1,1,0,0,1,0,9034,2918,5049,57053,80231,18546
uvAP4JuwHzZeZJ_aZyNLrg,Botto’s Italian Line Restaurant,1411 Kings Hwy,Swedesboro,NJ,8085,39.7484398,-75.3099684,3.5,137,1,1,1,2,1,1,1,1,1,1,0,1,4,0,6911,4464,1227,121645,136129,18737
qmDm7guS7TAZTSDFYY2bug,Pizza Hut,3611 Kirkwood Hwy,Wilmington,DE,19808,39.7346451,-75.637351,1.5,45,1,0,1,1,1,1,0,1,1,1,0,0,4,0,14680,7449,4913,82113,103780,38442
JtwyVOjFQvI2VZwZHta-dw,Bob Evans,"100 Cresson Blvd, Unit 2",Phoenixville,PA,19460,40.1330840253,-75.4502420086,2.5,51,1,0,1,2,1,1,0,1,1,1,0,0,4,0,16443,8339,6022,104504,139548,40154
ugSj0rWlWQ57-FuKuieGXA,Tampa Pizza Co - Westchase,9556 W Linebaugh Ave,Tampa,FL,33626,28.042926,-82.59231,4.0,81,1,1,1,2,1,1,1,1,1,1,1,1,4,0,11059,6414,3076,113550,139754,27557
e9J0IWHyYGU-AcCqTQ7lSA,Kaisen Sushi,14841 N Dale Mabry Hwy,Tampa,FL,33618,28.083075,-82.504375,4.0,69,0,0,1,2,1,1,1,1,1,1,0,0,4,0,12100,5819,4724,68245,106081,25570
pt0SLWdKuqrv7KRMgpOhLw,Starbucks,214-216 Kings Hwy,Haddonfield,NJ,8033,39.897906,-75.031543,3.5,38,0,1,1,2,1,0,0,1,1,1,0,0,3,0,6003,3701,1830,128134,178029,16261
BVndHaLihEYbr76Z0CMEGw,Mamas Kitchen,5524 S Dale Mabry Hwy,Tampa,FL,33611,27.884852,-82.5060044,4.5,162,1,1,1,1,1,1,0,1,1,1,1,0,2,0,16269,6087,8484,66495,103942,29478
Jubq4o59PS1Q3vyxBgrtQw,Rolling Stars,"706 E Market St, Ste 200",West Chester,PA,19382,39.954138,-75.616182,4.0,47,1,1,1,2,1,0,0,1,1,0,1,0,4,0,20429,10896,7580,104232,143574,52388
_yK1bMl56fBuj2fG5lMiMQ,Machu Picchu Peruvian Restaurant,5356 W 38th St,Indianapolis,IN,46254,39.8237744,-86.2538716,4.0,46,1,0,0,1,0,0,0,1,0,1,0,0,1,0,15672,4929,6951,46693,66661,38095
aCjTyN2RLAao0jsYZkZfbA,Ritter's Frozen Custard,4840 W 57th St,Indianapolis,IN,46254,39.8564753,-86.2421671,4.5,41,1,1,1,1,1,1,0,1,1,1,0,0,4,0,15672,4929,6951,46693,66661,38095
EjwrtCJDCZBUS_uTvpHMSw,Skeeter's Pub,7 Coles Rd,Blackwood,NJ,8012,39.8113901,-75.0676368,3.5,92,1,1,1,2,1,1,0,1,0,1,0,1,4,0,14625,7430,4781,79948,95210,38992
INWHqjudS0vDcVKlHyz69A,Shere-E-Punjab,5059 State Rd,Drexel Hill,PA,19026,39.9450734454,-75.3244363344,4.0,147,1,1,1,2,1,1,1,1,0,1,1,0,4,0,11854,5471,4066,73762,98812,30738
RTEdyP_6wGvXQugln1jxbg,Judge Bean's BBQ,7022 Church St E,Brentwood,TN,37027,36.0334682,-86.786661,3.5,246,1,0,1,2,1,1,0,1,1,1,0,0,4,0,20608,14144,4938,133254,189233,49035
dYicZfoQApq5y0vO6FbLtw,La Campagnola,439 Oakshade Rd,Shamong,NJ,8088,39.8167433979,-74.7612705307,4.0,98,0,1,1,2,1,1,1,1,0,1,0,0,4,0,9440,5774,2877,87216,107378,24664
LkskzKzo_S8YmG1dGn4hag,Tijuana Flats,9520 W. Linebaugh Ave.,Tampa,FL,33626,28.043321,-82.592416,4.0,104,1,1,1,1,1,1,0,1,1,1,0,1,2,0,11059,6414,3076,113550,139754,27557
KOAz86HXkNKNvEExrGXxlQ,Chick-fil-A,1141 S Clearview Pkwy,Jefferson,LA,70121,29.9614416,-90.1836644,3.0,77,1,1,1,1,1,1,0,1,1,1,0,0,1,0,5557,1477,3159,48769,65855,12029
Bih0eT_lbbCUwKmGYpX0hw,Ricci's Hoagies,1165 S 11th St,Philadelphia,PA,19147,39.9353601,-75.1615836,4.0,67,1,1,1,1,1,1,0,1,0,1,1,0,4,0,18239,6207,10326,86147,128426,36228
HQ-C47_Xi5it1KzwEc0u0A,Barbarians,511 State St,Santa Barbara,CA,93101,34.4170059325,-119.6960398541,3.0,96,0,0,1,1,1,1,0,1,1,1,0,1,4,0,13296,4177,6819,62925,91126,31683
qot32tHVWZpiJibLTwQGyw,Pina's Pizza,8919 Ridge Ave,Philadelphia,PA,19128,40.0694581,-75.2398454,3.5,47,1,0,1,1,1,1,1,1,0,1,0,0,4,0,16980,6799,8312,76854,95665,35239
aerbI0ICiEMIgeSUaLEpHw,Tokyo Japanese Restaurant,4044 Skippack Pike,Skippack,PA,19474,40.223632,-75.401727,4.0,59,0,1,1,2,1,1,1,1,1,1,0,0,1,0,197,97,85,107868,101336,733
seouwqRlM9YNNAkZS09FuQ,Jet's Pizza,954 N State Rd 135,Greenwood,IN,46142,39.6297342096,-86.159157,3.0,37,1,1,1,1,1,1,0,1,0,0,1,0,4,0,12431,7441,3655,77155,94444,30413
RI33oswGDkIsc0fuQ8GzjA,Oregon Steaks,2654 S 10th St,Philadelphia,PA,19148,39.91579,-75.1653879,3.5,184,1,1,1,1,1,1,0,1,1,1,1,0,2,0,19493,7020,7959,60226,75581,49732
yAsdDYPcIPUlISggX6oCYQ,Smashin Crab,"300 Indian Lakes Blvd -, Bldg B 100",Hendersonville,TN,37075,36.3301265674,-86.5901489267,4.0,72,1,1,1,1,1,0,0,1,1,0,1,1,1,0,24850,14487,6772,77320,104158,59256
yNlR9wTzd6Hg7It9fQrhdg,Buffalo Wild Wings,6537 Whitestown Pkwy,Zionsville,IN,46077,39.9474028,-86.3445247,2.0,91,1,1,1,2,1,1,0,1,1,1,1,1,1,0,10829,8241,1693,140092,187445,24512
iM1hWCwxoqO-d_djiKpEXQ,Steak ’n Shake,951 Sgt Asbury Hawn Way,Smyrna,TN,37167,35.9669111,-86.4955681,1.5,38,1,0,1,1,0,0,0,1,1,0,0,0,1,0,21579,10955,6308,69482,80715,49322
eS5KCIrpEB1Bp-uU1JJYyw,O'Charley's Restaurant & Bar,212 Indian Lake Blvd,Hendersonville,TN,37075,36.317476,-86.600643,2.5,31,0,0,1,2,1,1,0,1,1,1,0,1,2,0,24850,14487,6772,77320,104158,59256
RY1qY03QfETdrGWCEOugVw,Donnie Russell's Pic III Wings & Things,689 Stokes Rd,Medford,NJ,8055,39.8680354,-74.8089819,3.5,34,0,0,1,1,1,1,0,1,1,1,0,0,4,0,9895,6842,1936,132732,158477,27179
gqMRM12j5mder76t3bPxJw,Siam Cafe,316 Mccall St,Nashville,TN,37211,36.0999091,-86.7389853,4.0,141,1,0,1,2,1,1,0,1,0,1,0,0,1,0,29353,11228,13064,59075,75023,74755
EFPLTyrqx_x_6GVaDU5Mtw,Firehouse Subs,1921 W Brandon Blvd,Brandon,FL,33511,27.9367861,-82.3150592,2.5,35,1,0,1,1,1,1,0,1,1,1,0,0,2,0,22334,9691,7955,61149,79120,52003
EmbZ4QwVt_zgfqMOCATsyA,Let Them Eat Cake,"3805 S West Shore Blvd, Ste B",Tampa,FL,33611,27.9083039,-82.5272462,3.5,37,1,0,1,2,0,0,0,0,0,0,1,0,1,0,16269,6087,8484,66495,103942,29478
rViAhfKLKmwbhTKROM9m0w,Casino Del Sol,5655 W Valencia Rd,Tucson,AZ,85757,32.1311278367,-111.0866194535,3.0,298,1,1,1,2,1,0,1,1,1,1,0,0,4,0,6144,2980,1284,58961,68308,16988
V7TaLZ5EB94hqRIZ1_xjGQ,Kawa Japanese Cuisine,821 W Sproul Rd,Springfield,PA,19064,39.9439214896,-75.3488279928,4.5,145,1,0,1,2,1,1,0,1,1,1,1,0,4,0,8675,6088,1644,116394,133939,24459
HFuAKE0uZ-frIMjroeA-cA,SET NoLibs,"1030 N 2nd St, Unit 101",Philadelphia,PA,19123,39.9671493,-75.1404232,4.0,108,1,1,0,2,1,0,0,1,0,1,0,1,1,0,8565,2020,5678,77111,106137,13416
ls4-Q1KYVP7L6H4eMTQx4w,Cheeseburger Island Style,6410 S Virginia St,Reno,NV,89511,39.4677256,-119.7844423,2.5,42,0,1,1,2,1,1,0,1,0,1,0,0,4,0,11651,6956,3398,106071,157438,25011
g79jYJz3FEvgvglXqOUWxw,IHOP,3400 South I-10 Service Rd W,Metairie,LA,70001,29.99649,-90.15929,3.0,75,1,0,1,2,1,1,0,1,1,1,0,0,4,0,16638,6475,7575,56724,74980,37996
E-DcL1u330qwvoxXhipmUQ,George's Sandwich Shop,900 S 9th St,Philadelphia,PA,19147,39.9388315986,-75.1579846257,4.0,93,1,1,0,1,1,1,0,1,0,0,0,0,4,0,18239,6207,10326,86147,128426,36228
vzvm7_QXEDaMTxMOKLBNyQ,Guilin Chinese,3250 E Speedway Blvd,Tucson,AZ,85716,32.2358788,-110.9234611,3.5,116,1,0,1,1,1,1,1,1,0,1,0,0,4,0,15259,3927,9170,42147,60003,32853
1PMAO9O8iQ3gIZlPEaJN3g,One Stone Restaurant,323 Verret St,New Orleans,LA,70114,29.9525998,-90.0512591,4.0,30,0,1,1,1,1,1,0,1,1,1,1,0,1,0,9140,2198,4714,33490,51590,22870
VX7GkJDnhPG8NmrdO1V-6Q,First Watch,1345 4th St N,St. Petersburg,FL,33701,27.785663,-82.638323,4.0,82,1,1,1,2,1,0,1,1,1,1,0,0,4,0,9120,2230,6371,46786,87867,15014
GUNpbcLvHZLE3NpOifjNUQ,Slate,102 S 21st St,Philadelphia,PA,19103,39.9519011,-75.175709,3.0,124,0,1,1,2,1,0,1,1,1,1,0,1,4,0,15765,3571,11832,79110,134268,21908
2PlhAoV-zXw2SUaWzkw-Ng,Friendly's - Pottstown,200 Shoemaker Rd,Pottstown,PA,19464,40.2548246,-75.6597658,2.0,37,1,0,1,1,1,1,0,1,1,1,0,0,4,0,18589,8820,6107,64942,80703,45788
YEJh9kUueYsB_OSY11HXUA,The Spaniard,5303 W Kennedy Blvd,Tampa,FL,33609,27.9456158,-82.5327449,4.0,31,0,1,1,1,1,0,1,1,1,0,1,1,1,0,8497,3215,4322,85174,140410,15999
otQS34_MymijPTdNBoBdCw,BK Tacos,2680 N 1st Ave,Tucson,AZ,85719,32.2558336,-110.9605596,4.0,492,1,1,1,2,1,1,0,1,1,1,0,1,4,0,18119,3526,12170,34013,48571,43989
eFvzHawVJofxSnD7TgbZtg,Good Karma Cafe,928 Pine St,Philadelphia,PA,19107,39.9446092,-75.1578331,4.0,249,1,1,1,1,1,0,0,1,1,1,0,0,4,0,7823,1743,5771,60676,91522,14875
9XyO6Vk13vUXgJ2yM39P3A,Turchettis Delicatessen,1110 Prospect St,Indianapolis,IN,46203,39.752572,-86.1394762,4.5,115,0,0,1,2,1,1,0,1,1,1,1,0,4,0,14085,4662,6134,41321,58332,38950
E-4t5Hoon6aVFTWDPz26fQ,Biscuits Cafe,1035 Broad Ripple Ave,Indianapolis,IN,46220,39.8687947,-86.1407129,4.0,308,1,1,1,2,1,1,0,1,0,1,0,0,4,0,16879,6824,8390,77377,109485,34830
fMOVZ-u5IqfJ-lNOCLVm7g,Gin Korean BBQ,3012 N Arnoult Rd,Metairie,LA,70002,30.005691,-90.1607273,3.5,123,0,1,1,2,1,1,1,0,0,1,0,0,1,0,8954,3438,4225,56361,81822,18879
wWLic8cT6apGZWK8wWWSQQ,Hearth Kitchen,847 East Baltimore Pike,Kennett Square,PA,19348,39.8635846676,-75.6835765727,3.5,97,1,1,1,2,1,1,1,1,1,1,1,1,4,0,8940,5306,2316,96729,143491,22232
gK9CdFaCXmHoW8aLfXiSqg,Tired Hands Fermentaria,35 Cricket Ter,Ardmore,PA,19003,40.0066759391,-75.2903721129,4.0,459,0,0,1,2,1,1,1,1,0,1,0,0,4,0,5665,2805,2250,105061,135760,12519
aAdGIK9ewmiWtGzIcrQgNA,Gran Agave,5924 Providence Rd,Riverview,FL,33578,27.8944444366,-82.3180296645,3.5,214,0,1,1,2,1,1,0,1,1,1,0,1,1,0,20742,8818,7575,65142,77903,36693
OEzYP44ER97a1hi4LgR6bA,QDOBA Mexican Eats,1054 Baltimore Pike,Springfield,PA,19064,39.9145256557,-75.3438321455,3.5,44,1,0,1,1,1,1,0,1,1,1,0,0,4,0,8675,6088,1644,116394,133939,24459
1ZRGRUd3y5a8vrgUyzMcnQ,Jaco Juice and Taco,8 W Gay St,West Chester,PA,19380,39.9603702,-75.605488,4.0,130,1,1,1,1,1,1,0,1,0,1,1,0,4,0,20999,11647,7482,106738,136205,49534
zYty3y2eQZQfdCSzyUUbzw,Valley Shepherd Creamery,51 N 12th St,Philadelphia,PA,19107,39.953168623,-75.1589321091,4.5,32,0,0,1,2,0,0,0,1,0,0,0,0,1,0,7823,1743,5771,60676,91522,14875
Jc6MxMyCLp4DMfN4C1t1aQ,Pepo's Cuban Cafe,9939 4th St N,St. Petersburg,FL,33702,27.863139,-82.6384169,4.0,135,1,1,1,1,1,1,0,1,0,1,0,0,4,0,14139,5262,6602,54196,76814,29664
HMQ1HMB6r__ol7tSaiNvfg,Yolk - Monument Circle,111 Monument Cir,Indianapolis,IN,46204,39.769678,-86.156556,3.5,104,1,0,1,2,1,1,0,1,1,1,1,0,4,0,4582,498,3999,73281,100517,5125
AOlB9GRr5v89k_Gof3b_DA,Hobnobber Cafe,5928 W Metairie Ave,Metairie,LA,70003,29.983473,-90.199623,4.5,30,0,0,1,2,1,1,0,1,1,1,0,0,2,0,15213,7479,5353,65501,84117,40150
VD4mZEBNiCeyGSq51XV9jw,3 Wood Pizza & Pub,10497 W Lake Hazel Rd,Boise,ID,83709,43.545104,-116.312763,4.5,47,0,0,0,1,0,0,0,0,0,0,0,0,1,0,21787,12577,6435,74941,93384,50034
8-AIbFaP6GP9BwHZdclBog,Oh Yoko!,"Pine Tree Plz, 1428 Marlton Pike E",Cherry Hill,NJ,8034,39.9110535,-74.9915109,4.0,108,0,0,1,3,1,1,1,1,0,1,0,0,4,0,7233,3665,2457,95248,114885,18151
hYXUmvr48ucxDtxk2K6k7Q,Wing Spot,1700 Nottingham Way,Hamilton Township,NJ,8619,40.233549,-74.715984,3.0,30,0,0,1,1,0,1,0,1,0,0,0,0,1,0,9031,4683,3028,83589,99047,22723
c6r29yLfVhZaSyrtsNVLRQ,The Palace of Indian,1533 S 11th St,Philadelphia,PA,19147,39.9299499,-75.1629175,4.0,88,1,1,1,1,0,1,1,1,0,1,0,0,1,0,18239,6207,10326,86147,128426,36228
sGLDJ4V4ezZZemFHCa0z_g,Cantina Los Tres Hombres,"1180 Scheels Dr, Ste B 111",Sparks,NV,89434,39.5310198,-119.7227454,3.0,94,0,1,0,2,1,0,1,1,0,1,1,0,4,0,10651,5038,3923,68539,80202,25416
mNu6xYO2bn-rvacN12h9WA,In & Out Pizza,7600 Ogontz Ave,Philadelphia,PA,19150,40.0700275,-75.1575821,2.0,36,1,0,0,1,1,0,0,1,0,0,0,0,1,0,9662,2652,4028,51163,61289,23378
uz0Af3aczwENPY48UUEY0Q,Valente’s Cucina,7 Kings Ct,Haddonfield,NJ,8033,39.897279,-75.031978,5.0,45,0,1,1,1,0,0,1,1,0,0,0,0,1,0,6003,3701,1830,128134,178029,16261
SIoCIxjn4jLt2O-4DajWJw,Mac's Tavern,226 Market St,Philadelphia,PA,19106,39.949794,-75.144739,3.5,446,1,1,1,2,1,0,0,1,0,1,0,1,4,0,7625,2113,5180,116368,162885,11740
v3cbEy9tUWqeVVHQM5ZZ4A,Harvinskins Seafood Market & Cafe,3401 Federal St,Camden,NJ,8105,39.9478269011,-75.0742394732,4.5,46,1,0,1,2,1,1,0,1,1,1,0,0,1,0,8366,1998,2311,34722,49563,29077
9Pvwx_IfQgQL4ykmlGV6yA,P.F. Chang's,510 Germantown Pike,Plymouth Meeting,PA,19462,40.1163224545,-75.2837920189,3.0,243,1,1,1,2,1,1,1,1,1,1,0,0,4,0,6055,3601,1676,101843,118282,14658
kKPJLiHIr9Gd9sYs3GhxDQ,Brick & Mortar,539 Central Ave,Saint Petersburg,FL,33701,27.7713489,-82.6410526,4.5,421,1,1,1,2,1,0,0,1,0,1,0,0,4,0,9120,2230,6371,46786,87867,15014
3kiB39JzdovdlOhQj-nMCw,Pho Hoa Noodle Soup,1111 S 11th St,Philadelphia,PA,19147,39.9366969,-75.1614094,3.5,116,0,0,1,1,1,1,0,1,0,1,0,0,4,0,18239,6207,10326,86147,128426,36228
z680Aylt8wN2KAeFM1hy-A,Chatham Tap Mass. Ave.,719 Massachusetts Ave,Indianapolis,IN,46204,39.7766084,-86.1463714,4.0,427,1,1,1,2,1,0,0,1,1,1,1,1,3,0,4582,498,3999,73281,100517,5125
bkbeuXaYdfM2APQCalgmQ,Fox’s Pizza Den,6565 E Whitestown Pkwy,Zionsville,IN,46077,39.947406,-86.3442231,3.0,40,1,0,1,1,1,1,0,1,1,1,1,0,1,0,10829,8241,1693,140092,187445,24512
nJ4RKwRgkGiD4fE0QAg5mg,Saloon 151,151 W Gay St,West Chester,PA,19380,39.959524812,-75.6076141074,3.0,117,1,1,1,2,1,1,1,1,1,1,1,1,4,0,20999,11647,7482,106738,136205,49534
p3Vbzk03kNiI0tr181qamA,California Pizza Kitchen,"49 West Maryland Street, Suite 104",Indianapolis,IN,46204,39.766304,-86.159322,3.0,49,1,1,1,2,1,1,0,1,0,1,0,0,4,0,4582,498,3999,73281,100517,5125
IkLp51a_x_0CPlg0qMEqNg,PennePazze,3826 Charlotte Ave,Nashville,TN,37209,36.1527701,-86.8328937,4.5,152,1,1,0,1,0,0,0,1,0,0,0,0,1,0,16513,5233,8829,61096,82024,35457
WCVFqK84i2H5EClSoow7ZA,Itty-Bitty,512 E Chain Of Rocks Rd,Granite City,IL,62040,38.761132,-90.084759,4.5,33,1,0,1,1,1,1,1,1,1,0,1,0,4,0,17726,7801,6298,53964,63593,43735
LQcGL4hfJAeK6bk2ZdhmXw,Aqui Con El Nene,4415 N Flowing Wells Rd,Tucson,AZ,85705,32.28682634,-110.9950735,4.5,322,1,1,0,1,1,1,0,1,0,1,0,0,4,0,24304,6115,12791,30885,42888,57521
lPrP8gnPk3496WYAZUI0YQ,El Tumi Peruvian Restaurant,585 E Moana Ln,Reno,NV,89502,39.4933266,-119.7900715,3.5,83,0,0,1,2,1,1,0,1,1,1,0,0,1,0,18616,6344,8448,48782,65655,43566
peL7F35gY6nXuXDD-08LAA,Asian Kitchen,30611 US Hwy 19 N,Palm Harbor,FL,34684,28.0512845,-82.7362063,4.0,51,1,0,1,1,0,1,0,1,1,0,0,0,1,0,13173,5854,5766,56682,76217,25847
g6kAgbQQSQ8i1A_Za-znJQ,Little Caesars Pizza,656 N McCarran Blvd,Sparks,NV,89431,39.5403766,-119.7323674,2.0,44,0,0,1,1,0,0,0,1,0,1,0,0,1,0,15322,5782,5826,50233,63806,36189
8K73iRrUIXcwTB5SKetptQ,Sushi-Haru,3817 Northdale Blvd,Tampa,FL,33624,28.0943138,-82.5041143,3.5,63,0,0,1,2,1,1,1,1,1,1,0,1,1,0,15043,7421,5070,71668,89008,37457
XpTNCVbO5wL1DtDyKzKqfA,Holmesburg Bakery,7935 Frankford Ave,Philadelphia,PA,19136,40.0410115,-75.0284172,4.0,79,0,0,1,1,0,0,0,1,0,0,0,0,1,0,12417,4712,4764,54391,68317,40647
t3uOJKilXAzO7vC2B83RZg,Abruzzi Pizza,4011 Edgmont Ave,Brookhaven,PA,19015,39.872541,-75.3871996,3.0,55,1,0,1,2,1,1,0,1,0,0,0,0,1,0,6625,2567,2138,66967,81433,16632
R07rb3FN2QoRIbB6r6HDxQ,Tastee Restaurant,3130 Loyola Dr,Kenner,LA,70065,30.0115110652,-90.2661487145,4.5,141,0,0,1,1,1,1,0,1,1,1,0,0,4,0,19229,8675,6958,57206,79639,51116
kQRB8RNwd7cEMcURTS-I7A,Sabrina's Café,714 Haddon Ave,Collingswood,NJ,8108,39.9159547157,-75.0684280694,4.0,570,1,1,1,2,1,1,0,1,1,1,1,0,4,0,7951,3630,3415,94851,111237,18045
d-VtgcAxArPxVYQUSyF6vw,Green Herb Thai Cuisine,4617 State Rd,Drexel Hill,PA,19026,39.9504263,-75.3122235,4.0,39,1,0,1,1,1,0,1,1,1,0,0,0,1,0,11854,5471,4066,73762,98812,30738
iCKF72z3fqRTF1vxdBZINQ,Village Pub & Beer Garden,1308 McGavock Pike,Nashville,TN,37216,36.2043436,-86.7247994,4.0,260,1,1,1,2,1,0,0,1,1,1,1,0,4,0,8244,2732,4347,62214,87031,17848
hDVpw1PSS31uFUCOsI-eog,Mi Tierra,579 Almaville Rd,Smyrna,TN,37167,35.9408499083,-86.5285620676,2.5,44,1,1,1,2,1,1,0,1,1,1,0,0,4,0,21579,10955,6308,69482,80715,49322
v9D3inGP2LaibM0VMufaXg,Coco Thai Bistro,231 Haverford Ave,Narberth,PA,19072,40.0057545,-75.2607604,4.0,142,1,1,1,2,1,1,1,1,0,1,0,0,4,0,4121,2443,1246,131685,209007,9539
kGUmgyeYcNDcuEr4FoVeA,Black Rock Pizza,2855 N McCarran Blvd,Sparks,NV,89431,39.5552506,-119.7535886,4.0,169,1,1,1,2,1,1,0,1,0,1,0,0,4,0,15322,5782,5826,50233,63806,36189
LqF5QiIm89Ea9wtc0cdPCA,Dugout Bar,621 Virginia Ave,Indianapolis,IN,46203,39.7582445,-86.1464579,4.0,128,0,1,1,1,1,0,0,0,1,1,0,1,2,0,14085,4662,6134,41321,58332,38950
6LCZLGa09Qifn6rG7-DNrg,Erawan Thai Cuisine,925 Arch St,Philadelphia,PA,19107,39.953793,-75.155832,3.5,180,1,0,1,2,1,1,1,1,1,1,0,0,1,0,7823,1743,5771,60676,91522,14875
ju1qrGJ1mcc1sc2oRX7X5g,West Coast Taco Truck,831 Broad Ripple Ave,Indianapolis,IN,46220,39.869476,-86.1436545,3.5,58,0,1,1,1,1,1,0,1,0,1,0,0,1,0,16879,6824,8390,77377,109485,34830
XdcWCEhxUtBcSyn-DiidPw,Domino's Pizza,5631 Charlotte Pike,Nashville,TN,37209,36.149509,-86.8595764,2.0,37,1,0,1,1,1,0,0,1,0,0,0,0,1,0,16513,5233,8829,61096,82024,35457
WfZ7KkYL1eIO3ZrNeASYJw,Verchio's Produce Outlet,272 Hurffville Crosskeys Rd,Sewell,NJ,8080,39.7241447,-75.0495698,3.5,32,0,0,1,1,1,1,0,1,1,1,0,0,1,0,13425,8353,3116,107566,127108,37433
EaTbY8HFwwF7i3SjVbHGYw,Montecito Wine Bistro,516 San Ysidro Rd,Montecito,CA,93108,34.4373228188,-119.6313193337,4.0,142,1,1,1,2,1,0,1,1,1,1,1,0,4,0,4409,2288,1790,165764,251866,11112
IwqFmo-RJs15WvA8PVHFnA,Madre - Boutique Taqueria,1034 S La Pointe St,Boise,ID,83706,43.6079160867,-116.2129873037,4.5,141,1,1,1,2,1,1,0,1,1,1,1,1,4,0,14623,4965,7987,57664,80395,29732
Nd_3fSvYDCjM8YJdBx4Y9w,Melt Down Grilled Cheese,522 W Lancaster Ave,Wayne,PA,19087,40.045122,-75.4037589,4.0,89,0,1,1,1,1,1,1,1,0,1,0,0,4,0,11749,7202,3478,144022,196760,32225
